id,lat,lon,name,state_id
503,29.6747550597811,-82.3577014892123,Alachua,2
504,37.2243025441843,-78.4410831318545,Prince Edward,52
505,39.6481744990483,-110.5889834083,Carbon,24
506,40.3369445571841,-75.1068653817701,Bucks,19
507,44.5477769818719,-99.0049367334867,Hand,50
508,41.3433818658506,-77.0645062247274,Lycoming,19
509,46.8161275008055,-116.711679796963,Latah,7
510,33.3217673625038,-83.3728413608748,Putnam,22
511,35.0216997380651,-77.3552579614045,Jones,9
512,40.452599049441,-92.1470474590602,Scotland,45
513,39.7834476080113,-96.0141016608272,Nemaha,47
514,39.7843853310366,-99.9034768781373,Norton,47
516,18.4415661248202,-66.1388410986448,Cataño,49
571,34.2654393578556,-78.6550964165132,Columbus,9
572,38.8246748777421,-82.3169098946785,Gallia,25
573,32.3014719986919,-99.8901220968617,Taylor,26
574,37.2650351230144,-77.3968999145912,Colonial Heights,52
575,40.3016413763676,-81.9200107289818,Coshocton,25
576,40.8509414102944,-101.649613260342,Perkins,18
577,28.5561707624342,-82.4684891865255,Hernando,2
578,30.1477727030911,-84.3756072011837,Wakulla,2
579,30.6184688539544,-86.1715163112921,Walton,2
1514,37.9234188175918,-121.951212462567,Contra Costa,14
1515,37.537991268611,-77.4058133181283,Henrico,52
1516,39.3128120244193,-86.8376515368866,Owen,48
1517,41.1514802793145,-73.7533909080013,Westchester,38
1518,37.3221907275775,-90.0259472029528,Bollinger,45
1519,37.3785013205727,-81.6535837814889,McDowell,1
1520,39.2835296966737,-80.3798749744231,Harrison,1
1521,36.3040241208187,-78.6530219850909,Granville,9
1522,41.3488225502739,-72.8998597075879,New Haven,11
1523,42.264374620965,-97.6012905226442,Pierce,18
1524,32.4344414411826,-83.3278388282278,Bleckley,22
1525,33.0611534865238,-82.0007811250799,Burke,22
1526,37.4712282358854,-89.2550878566547,Union,3
1527,41.1377046863894,-87.861798272114,Kankakee,3
1528,46.111793686297,-99.4412043278016,McIntosh,33
1529,41.5712867694969,-97.5211569987864,Platte,18
1,41.9164028167059,-96.7874004205923,Cuming,18
2,46.2912488938994,-123.43316355035,Wahkiakum,20
3,34.3423873336313,-104.411999907394,De Baca,13
4,40.7841738687811,-96.6877552413673,Lancaster,18
5,40.1763796342413,-98.0471849924036,Nuckolls,18
6,18.1875265562353,-65.8693173741472,Las Piedras,49
7,43.6741776957812,-96.791437498831,Minnehaha,50
8,30.8897823871925,-99.8206351208776,Menard,26
9,39.5804001009677,-120.515996386224,Sierra,14
10,36.727481635866,-85.1360135638346,Clinton,34
11,41.0019352470988,-83.6665358163553,Hancock,25
12,33.2690858861983,-85.8605470594419,Clay,23
13,40.6822629676506,-80.3492872611798,Beaver,19
14,32.0191127382577,-89.1188598245751,Jasper,44
15,38.3851630202789,-93.7927500210259,Henry,45
16,38.080552755058,-106.281555563396,Saguache,27
17,35.7025799977725,-79.255348941789,Chatham,9
18,41.6323243662167,-111.244449544114,Rich,24
19,35.8839278621708,-94.6586792118038,Adair,29
20,41.9103520853588,-81.250939234726,Lake,25
21,37.2864088756052,-80.0553882645953,Salem,52
22,37.1742458874737,-80.3869940851614,Montgomery,52
23,35.1808553051756,-85.1647898809933,Hamilton,30
24,32.6131555654541,-105.741682566973,Otero,13
25,33.9153323526399,-108.40473046802,Catron,13
26,32.2476134218462,-87.7895192845523,Marengo,23
27,42.2640424329208,-110.655974278949,Lincoln,31
28,37.5023006291144,-94.3471107708901,Barton,45
29,28.4391092432848,-96.6150736937531,Calhoun,26
30,32.8318961746986,-92.3748182247825,Union,21
31,35.4953513537719,-94.7552378888716,Sequoyah,29
32,34.4597728191605,-85.8041414488744,DeKalb,23
33,42.2678090726489,-77.383803260633,Steuben,38
34,41.5130724371797,-79.2360118446624,Forest,19
35,30.6266531988245,-90.4056803848566,Tangipahoa,21
36,38.4206997556693,-77.4574284085175,Stafford,52
37,45.525140577772,-87.5096948515371,Menominee,42
38,41.022997155111,-87.1161200745632,Jasper,48
39,31.1968760634715,-81.9818952648645,Brantley,22
40,41.6438677859706,-85.0007650574864,Steuben,48
41,30.1213082998956,-93.8938981061933,Orange,26
42,30.0614838059408,-99.3501597612496,Kerr,26
43,38.0796491342813,-86.6380317975873,Perry,48
44,34.4904742074181,-89.0038569338379,Union,44
45,42.899684865973,-98.7664619222424,Boyd,18
46,45.9380486923111,-93.6300874069869,Mille Lacs,4
47,48.3694617136683,-97.7213717788819,Walsh,33
48,39.6203727338451,-81.8526615394673,Morgan,25
49,41.1676828958104,-81.1974036108402,Portage,25
50,41.2875605358037,-110.547594496509,Uinta,31
51,41.4068424414041,-118.111968146329,Humboldt,39
52,27.0433971299427,-98.6973050703765,Jim Hogg,26
53,38.8279397243427,-102.603395811939,Cheyenne,27
54,45.1881429945282,-122.220946805989,Clackamas,17
55,34.4858432217612,-94.2280693261016,Polk,43
56,32.3583892602971,-84.0424796302027,Macon,22
57,40.6062584625753,-87.310906016728,Benton,48
58,36.1350244091144,-84.649203742733,Morgan,30
59,43.3869244130884,-98.3660986075199,Douglas,50
60,38.2165007073208,-75.2966693294214,Worcester,5
61,38.4460655479893,-87.8442504223467,Wabash,3
62,40.8292399586534,-85.4881722762987,Huntington,48
63,38.291555654689,-84.5839266048845,Scott,34
64,40.7376826869524,-93.7862814994565,Decatur,54
65,28.4225360480988,-99.7567260229003,Dimmit,26
66,43.6739971846239,-92.0901672915974,Fillmore,4
67,34.6920572771883,-81.1595312333077,Chester,28
68,44.9954869275089,-96.1734786910907,Lac qui Parle,4
69,41.7223685563313,-111.743563204481,Cache,24
70,44.719630978832,-92.4224864775855,Pierce,16
71,30.7817232403237,-82.1376912811908,Charlton,22
72,34.0017844421026,-85.18815338522,Polk,22
73,40.4908904785908,-88.8473229921684,McLean,3
74,44.1658484297226,-70.2064449950435,Androscoggin,37
75,47.6745559383244,-116.700014280353,Kootenai,7
76,36.2151989744275,-115.013561604036,Clark,39
77,39.784582892237,-99.3470218391826,Phillips,47
78,42.4557109529792,-98.7838446656272,Holt,18
79,38.7440854798803,-93.8063674940816,Johnson,45
80,43.906529450593,-91.1152167286828,La Crosse,16
81,32.0922715432467,-92.1166058726677,Caldwell,21
82,45.4188272610228,-119.584300675955,Morrow,17
83,46.0706235701093,-94.8975995553504,Todd,4
84,35.2152723613336,-93.7163062318136,Logan,43
85,35.4861792221116,-81.2238662759095,Lincoln,9
86,33.3121465968221,-93.8915606014734,Miller,43
87,28.5144237035028,-81.3234779807881,Orange,2
88,37.7640431617805,-107.676147249948,San Juan,27
89,42.1811739699087,-111.813232111682,Franklin,7
90,33.5827978460796,-85.0797630735106,Carroll,22
91,39.2964628820702,-96.7351824168549,Riley,47
92,30.8974526063208,-100.538546048589,Schleicher,26
93,36.9337603054373,-82.095637670558,Russell,52
94,35.9529670029221,-81.5465487929722,Caldwell,9
95,39.2509849613183,-82.4853500684101,Vinton,25
96,31.5523768988559,-97.2017877766859,McLennan,26
97,44.2414156170933,-114.281799917463,Custer,7
98,43.3567673376934,-92.3171989040977,Howard,54
99,26.6475679882291,-80.4365079466885,Palm Beach,2
100,33.7936595945832,-82.4512127446414,Lincoln,22
101,31.7524339407107,-86.6802892177402,Butler,23
102,36.4694087048745,-86.4603550052863,Sumner,30
103,37.7186239330037,-76.8952667204111,King and Queen,52
104,36.341028005711,-93.5382496727669,Carroll,43
105,35.7103262647723,-79.8061617642853,Randolph,9
106,39.5624202582844,-75.9481069822586,Cecil,5
107,40.3469033301182,-87.3533144833612,Warren,48
108,41.5674402740559,-98.5212445359407,Greeley,18
109,40.175760849278,-97.142715669441,Jefferson,18
110,40.5240610686038,-97.140908688274,Saline,18
111,37.3540524635469,-82.954131428629,Knott,34
112,41.898035809382,-90.5319724338897,Clinton,54
113,43.6741733001577,-95.1541129515349,Jackson,4
114,44.0225888973387,-92.8620536959677,Dodge,4
115,43.6738441961376,-93.3488158500751,Freeborn,4
116,38.2046063995993,-120.554132185582,Calaveras,14
117,42.2851073151384,-86.3064158584912,Van Buren,42
118,41.2053387121252,-90.7414081515894,Mercer,3
119,38.0678784894942,-82.7347546153801,Lawrence,34
120,37.92228092218,-83.2588933616211,Morgan,34
121,37.2157924330563,-87.1420415361962,Muhlenberg,34
122,39.0597698044686,-88.5898573512962,Effingham,3
123,35.734778417284,-84.3118692720315,Loudon,30
124,44.858253883124,-97.7294962639889,Clark,50
125,23.7186403965059,-164.736740347206,Honolulu,32
126,29.725822717509,-82.8003665387055,Gilchrist,2
127,40.3886187408943,-86.8940974120284,Tippecanoe,48
128,40.7698380745722,-77.0701855095615,Snyder,19
129,33.6672620532924,-95.5712007126123,Lamar,26
130,25.6089682377141,-80.4986667683312,Miami-Dade,2
131,40.1762352498152,-101.687961390056,Dundy,18
132,31.296506813983,-95.9956906559985,Leon,26
133,39.2171057738724,-106.91657776438,Pitkin,27
134,47.9219193457294,-97.4569334149904,Grand Forks,33
135,41.54902153997,-86.7423662182815,LaPorte,48
136,40.0724894883336,-86.0520142764405,Hamilton,48
137,33.7815571332006,-83.7338466264982,Walton,22
138,29.8767867858516,-96.9197617317345,Fayette,26
139,44.358627193482,-103.792224518009,Lawrence,50
140,44.9694588475745,-67.6090584540684,Washington,37
141,34.5302640814159,-101.208593304884,Briscoe,26
142,47.0221121119148,-89.4347268346446,Ontonagon,42
143,33.4485258560038,-89.9201976956094,Carroll,44
144,44.4917594847689,-123.429309150422,Benton,17
145,43.6746303821908,-96.2532075774186,Rock,4
146,40.6520490722848,-79.0875499721487,Indiana,19
147,32.6016373686572,-92.6648152947022,Lincoln,21
148,40.39840944385,-77.2622960984236,Perry,19
149,44.9804116584468,-101.665859429995,Ziebach,50
150,32.5481332121365,-94.3714865619182,Harrison,26
151,46.6997567065938,-88.3521520006983,Baraga,42
152,36.3715703960167,-95.6043615478413,Rogers,29
153,38.9906151379582,-92.3096802306704,Boone,45
154,31.4284975109991,-102.515568531668,Crane,26
155,42.351398957094,-71.9077397203692,Worcester,51
156,40.3884529849554,-83.7658717673325,Logan,25
157,36.0753610044271,-119.815502478062,Kings,14
158,33.0282032003046,-116.77020744242,San Diego,14
159,17.972954020186,-66.2619756597068,Salinas,49
160,32.7145016613925,-83.9863423455767,Crawford,22
161,18.2110304396131,-65.7360948743903,Naguabo,49
162,38.6470045492216,-94.3548235187272,Cass,45
163,41.7651482571543,-73.7428623576925,Dutchess,38
164,30.2145304406047,-96.4034437591038,Washington,26
165,38.1734238777555,-104.51284680805,Pueblo,27
166,36.932597605642,-92.4988057667142,Douglas,45
167,48.7921607933805,-100.833330710254,Bottineau,33
168,35.0485920130148,-78.8274381619087,Cumberland,9
169,43.7189289938308,-108.44209714877,Hot Springs,31
170,44.683627099898,-83.1289738605668,Alcona,42
171,39.0634272010927,-120.717651602568,Placer,14
172,35.9109029444771,-92.6994882490355,Searcy,43
173,41.4368044123232,-78.2037774077039,Cameron,19
174,33.0794931906271,-80.4055612698338,Dorchester,28
175,44.0221231676065,-93.5872833992181,Waseca,4
176,43.7180587356108,-99.0809354283461,Brule,50
177,35.6786827045888,-85.7784980427823,Warren,30
178,39.3335669523062,-87.7877227376349,Clark,3
179,38.5188242838638,-84.0520295688771,Robertson,34
180,36.3353843214325,-89.4934668218434,Lake,30
181,33.1976798659449,-79.9509869715467,Berkeley,28
182,34.5766864971567,-93.1504253610921,Garland,43
183,38.6523289238991,-95.726945142577,Osage,47
184,41.3171745663751,-80.7611604754605,Trumbull,25
185,31.4951939703389,-98.5954600946609,Mills,26
186,34.2508640037551,-97.2857872799821,Carter,29
187,39.8059648261732,-91.6223485754928,Marion,45
188,43.9988461697718,-76.0521067444844,Jefferson,38
189,42.1717425863485,-90.5742294037917,Jackson,54
190,47.921694411059,-98.1920349710106,Nelson,33
191,44.7462266152198,-73.6781744844168,Clinton,38
192,39.5993066218167,-107.903953676873,Garfield,27
193,39.3524140523473,-93.9898835197882,Ray,45
194,36.3965926104838,-78.1068969709965,Warren,9
195,18.1311322837996,-66.2643804717269,Aibonito,49
196,32.3533781779384,-84.5246378750446,Marion,22
197,42.9146543674094,-96.9756554068519,Clay,50
198,38.6832971803692,-75.3395416479216,Sussex,12
199,33.3164336087299,-83.6880895609759,Jasper,22
200,39.4401679794025,-92.4970779774088,Randolph,45
201,37.7812707567127,-96.8390654493426,Butler,47
202,30.0581505823111,-98.0310632103758,Hays,26
203,29.3556960275668,-99.1101310430795,Medina,26
204,43.9961015460465,-86.5450637657221,Mason,42
205,32.357058616445,-80.6921701720741,Beaufort,28
206,43.0089687719483,-97.3947450933608,Yankton,50
207,42.6712239518098,-89.071576960204,Rock,16
208,34.8875159454058,-82.7253164890606,Pickens,28
209,46.2975509251158,-117.907881337442,Columbia,20
210,40.3016905957838,-86.4751595358854,Clinton,48
211,38.6064518850326,-89.4224848881157,Clinton,3
212,42.8543985986909,-113.637517400814,Minidoka,7
213,32.2641243737608,-89.9457980686622,Rankin,44
214,34.0740947715509,-100.779828966732,Motley,26
215,43.9415522733386,-122.876549735549,Lane,17
216,33.9879799943568,-98.7036147168948,Wichita,26
217,42.953734635186,-84.1467331823468,Shiawassee,42
218,39.7847320724424,-98.2183408835737,Jewell,47
219,39.3932659078775,-98.2093647977959,Mitchell,47
220,29.9499618071409,-82.1687791820483,Bradford,2
221,31.230817120837,-89.8224429896965,Marion,44
222,30.8626067891456,-88.6440345880358,George,44
223,42.365816068818,-90.2125864697124,Jo Daviess,3
224,39.8235499996299,-85.7732376540121,Hancock,48
225,31.8691687023115,-102.031623531538,Midland,26
226,38.4821693590307,-100.906858955897,Scott,47
227,47.308019102996,-111.347145983424,Cascade,46
228,37.831145513601,-83.8237747381395,Powell,34
229,37.2035473089137,-94.3406053084783,Jasper,45
230,45.3103460893335,-118.008996873896,Union,17
231,33.4529855553237,-84.1541840349661,Henry,22
232,46.0968418605209,-102.528530328314,Adams,33
233,35.151521420002,-76.6671607436661,Pamlico,9
234,36.7231381098373,-88.6512056841683,Graves,34
235,40.495294010302,-78.7137032905886,Cambria,19
236,35.4247463803996,-84.6174739082681,McMinn,30
237,42.6029155814235,-83.9115271331995,Livingston,42
238,39.8736228676333,-104.337892507335,Adams,27
239,41.436785942047,-75.6091957321903,Lackawanna,19
240,34.7280001678131,-96.6844385668066,Pontotoc,29
241,40.8460193664437,-82.2706916944006,Ashland,25
242,41.9166980847733,-97.6007790800804,Madison,18
243,27.0815658369694,-80.3985099262112,Martin,2
244,37.6689956824948,-106.924094646339,Mineral,27
245,34.4442981074996,-84.1706358125681,Dawson,22
246,32.7014650329005,-82.6600810792086,Johnson,22
247,34.6778383899277,-91.2038915522394,Monroe,43
248,37.6804065213139,-93.0236554114538,Dallas,45
249,36.8213342186632,-79.3971112779163,Pittsylvania,52
250,63.6734728034342,-150.008848804161,Denali,40
251,38.1813307735496,-99.236729348309,Pawnee,47
252,39.1146452392257,-94.7644773478894,Wyandotte,47
253,29.5812415284672,-83.1870324533208,Dixie,2
254,43.491342533122,-83.4398685770653,Tuscola,42
255,63.8769136481465,-143.207059761003,Southeast Fairbanks,40
256,39.9731414374361,-75.7484541714749,Chester,19
257,37.4055150162918,-81.1114444773727,Mercer,1
258,35.8478552169251,-84.5232421788441,Roane,30
259,48.1104382659526,-123.934315291897,Clallam,20
260,48.3990638663645,-117.855136870437,Stevens,20
261,40.7532294463483,-91.9499871051466,Van Buren,54
262,40.5148205308335,-99.8307042901475,Gosper,18
263,33.8922414989311,-88.4804669056196,Monroe,44
264,30.6143963850483,-87.341364190757,Escambia,2
265,32.7715562626258,-97.2912370300671,Tarrant,26
266,38.8295151262885,-76.847292299077,Prince George's,5
267,36.7142217987285,-82.6029811573563,Scott,52
268,28.9542442580955,-96.5776809165547,Jackson,26
269,33.9498640439088,-97.2441794887228,Love,29
270,32.6672014429069,-83.4270835329112,Twiggs,22
271,41.0146405865966,-80.7762946607952,Mahoning,25
272,32.3859735917214,-85.6926685005488,Macon,23
273,38.4295645851031,-88.4256136347909,Wayne,3
274,41.938940359241,-88.4286584889146,Kane,3
275,38.7787379673471,-120.524646927556,El Dorado,14
276,34.3387644030517,-80.5902597224461,Kershaw,28
277,36.4448912922238,-76.700492001717,Gates,9
278,37.9027017254326,-103.716445681704,Otero,27
279,43.2853608913438,-123.179423332921,Douglas,17
280,41.0580678214429,-75.3394763176028,Monroe,19
281,35.9199747272801,-93.2178671805374,Newton,43
282,48.7723024886294,-98.4648634700217,Cavalier,33
283,36.3885964142244,-97.2305122471367,Noble,29
284,38.9160956208114,-100.482904405108,Gove,47
285,30.709395694303,-91.6007888512991,Pointe Coupee,21
286,40.2619300200035,-96.6894417076699,Gage,18
287,33.7157028654908,-86.3146878018691,St. Clair,23
288,32.4063798661858,-89.5376379614353,Scott,44
289,31.5333740314748,-84.2162536899673,Dougherty,22
290,38.1951228828524,-86.1113109510689,Harrison,48
291,48.2997486667782,-116.60097373045,Bonner,7
292,34.9036573848723,-85.1382469487336,Catoosa,22
293,31.6767316918579,-92.1604365034468,LaSalle,21
294,39.1847403432567,-83.6009720960226,Highland,25
295,48.7705096938368,-94.9050287703806,Lake of the Woods,4
296,43.2165158555402,-112.39805335709,Bingham,7
297,18.0231632256006,-67.1857586796595,Cabo Rojo,49
298,18.1332084993271,-65.7877943292069,Humacao,49
299,18.223517473252,-65.9088978136525,Juncos,49
300,34.8943073991193,-82.3707179452642,Greenville,28
301,43.8958171788139,-99.8473845623269,Lyman,50
302,44.3039483274255,-91.3584634233655,Trempealeau,16
303,38.686646495186,-121.90162045012,Yolo,14
304,31.8278792010019,-101.050008039283,Sterling,26
305,34.1319410680561,-86.8676193965076,Cullman,23
306,33.7018283674853,-84.7679729546115,Douglas,22
307,40.3926315628318,-96.2650968839278,Johnson,18
308,35.8388681535933,-76.5686848731595,Washington,9
309,43.9606083028282,-100.689721998928,Jones,50
310,34.9738257556016,-80.1027261439029,Anson,9
311,59.0738779799248,-135.472590051019,Haines,40
312,47.0234454632337,-103.376426142565,Billings,33
313,42.1769034630587,-98.0666852970918,Antelope,18
314,38.4408672033275,-91.5079334036403,Gasconade,45
315,37.2072800992136,-86.6817563676777,Butler,34
316,42.7582365348649,-78.7796595805379,Erie,38
317,39.136375970743,-77.2042389095649,Montgomery,5
318,38.8786320173206,-77.1009973811095,Arlington,52
319,36.7315428015471,-80.7339028394049,Carroll,52
320,38.7819172288319,-90.6748966560384,St. Charles,45
321,36.6057058980396,-121.074995541092,San Benito,14
322,39.0376284121582,-76.0850360011153,Queen Anne's,5
323,39.8264992250005,-95.5642193503387,Brown,47
324,39.0655884353637,-93.7855426445596,Lafayette,45
325,35.7050272376159,-77.9186229757261,Wilson,9
326,40.5240865229608,-82.7940677882045,Morrow,25
327,46.4044390149207,-113.440265008913,Granite,46
328,47.457075557392,-98.8830202983026,Foster,33
329,35.5888310490102,-94.243116071356,Crawford,43
330,30.788297012191,-98.1824471874775,Burnet,26
331,37.8944043954778,-90.1944237021802,Ste. Genevieve,45
332,35.401163265464,-100.81255804087,Gray,26
333,40.4562114534137,-90.6779102202267,McDonough,3
334,41.0301399946774,-95.1563757818894,Montgomery,54
335,35.5992305274131,-91.2145705337412,Jackson,43
336,31.4561761716731,-105.386460748006,Hudspeth,26
337,31.1986202851067,-92.533199624986,Rapides,21
338,41.0477675130055,-100.745233831995,Lincoln,18
339,33.0775360601056,-94.3435928034781,Cass,26
340,36.3318375990672,-88.3012135794213,Henry,30
341,36.5831407861995,-79.4087696319003,Danville,52
342,34.3541335174733,-83.4973717351262,Banks,22
343,40.3113452388422,-86.0518589760808,Tipton,48
344,39.3497108171921,-97.1651740651087,Clay,47
345,35.9610950138463,-95.5211810937237,Wagoner,29
346,47.7879195358382,-104.561342065909,Richland,46
347,33.1912223389905,-91.7684485130228,Ashley,43
348,33.833331220092,-91.2539453833169,Desha,43
380,42.1702974710957,-76.306316792846,Tioga,38
381,30.3106777864767,-96.9657036711535,Lee,26
382,33.7902593912279,-84.4670148700609,Fulton,22
383,31.8369521190014,-95.165179317423,Cherokee,26
384,39.2157556122715,-91.8415857701311,Audrain,45
385,32.8434261550816,-80.6496843151466,Colleton,28
386,43.0208208303471,-88.7758720618307,Jefferson,16
387,36.1176924031146,-90.5590755149433,Greene,43
388,34.5307791440434,-100.681128586711,Hall,26
389,45.8627158036668,-92.3675670393376,Burnett,16
390,34.6404675738151,-105.850776338082,Torrance,13
349,18.1252645849002,-65.4323048679013,Vieques,49
350,35.6426320477406,-87.8589683664296,Perry,30
351,45.0387579534125,-92.8839692588891,Washington,4
352,39.9198995980709,-79.647369346998,Fayette,19
353,39.105134365331,-79.1955701062083,Grant,1
354,38.8583924551831,-78.5706007906695,Shenandoah,52
355,31.3039250217864,-100.982419274554,Irion,26
356,39.6557509826245,-93.9827993208185,Caldwell,45
357,29.6086347979584,-81.7443041126202,Putnam,2
358,38.2924145675451,-86.4517083896884,Crawford,48
359,40.0968997029693,-91.7221441045393,Lewis,45
360,18.4578280943301,-65.9025218929172,Loíza,49
361,42.1949016103791,-112.53962275872,Oneida,7
362,39.6414793799073,-88.6192991798622,Moultrie,3
363,39.9735654590859,-90.2473856793207,Cass,3
364,33.6542352864161,-84.0266084444925,Rockdale,22
365,40.5310649137229,-77.4021626499228,Juniata,19
366,41.8077476133323,-78.5690251344855,McKean,19
367,34.7045725725992,-97.3093234080987,Garvin,29
368,41.8515631816608,-96.3286044970506,Burt,18
369,36.5084710406166,-108.320595521687,San Juan,13
370,43.3822823993303,-78.2304441109954,Orleans,38
371,32.0554484487251,-93.7372832562879,De Soto,21
372,36.7581791892423,-119.649319951501,Fresno,14
373,34.1167932927122,-82.8400954971642,Elbert,22
374,31.8696032203232,-85.393196978084,Barbour,23
375,34.6143134242306,-78.5631842852373,Bladen,9
376,43.9148834537723,-121.227891775471,Deschutes,17
377,41.3366123080281,-95.542393513523,Pottawattamie,54
378,37.2701400361036,-92.4687042535843,Wright,45
379,48.6553022728964,-111.695696609259,Toole,46
391,46.5512823935851,-123.778859773786,Pacific,20
392,34.5149385769224,-77.8888679246196,Pender,9
393,32.4299283341088,-97.8322724005263,Hood,26
394,44.4123213681535,-100.735943174083,Stanley,50
395,40.6654177896754,-119.664296586947,Washoe,39
396,37.0584306004716,-88.9993421553424,Ballard,34
397,33.6152525658798,-98.6876492824191,Archer,26
398,41.2249601916408,-73.3712044320166,Fairfield,11
399,30.965538597581,-95.9284101885833,Madison,26
400,37.9347767280127,-121.271446516848,San Joaquin,14
401,33.0884909972413,-89.0344291765946,Winston,44
402,38.4484679218848,-85.1189299639681,Henry,34
403,37.8110332564347,-84.8744353235301,Mercer,34
404,41.9147702811789,-98.5281860103269,Wheeler,18
405,38.5315439631662,-83.3780542336331,Lewis,34
406,45.9340461669408,-96.0121840980514,Grant,4
407,33.1286972873961,-90.5266210213669,Humphreys,44
408,31.6766595801679,-87.8308098506617,Clarke,23
409,38.3020466005581,-96.5939294107024,Chase,47
410,36.8063198559474,-87.8733714194667,Trigg,34
411,30.7863413279446,-96.9768458063425,Milam,26
412,38.0140589359465,-87.007705947021,Spencer,48
413,37.2999271768517,-85.8847085495434,Hart,34
414,37.4553488477604,-84.6608112554662,Lincoln,34
415,48.4327632245928,-108.958663273597,Blaine,46
416,36.5095707929482,-106.693108954285,Rio Arriba,13
417,44.4647171676333,-72.102190735553,Caledonia,10
418,37.5571235580931,-79.8123315035171,Botetourt,52
419,38.8298530291681,-89.9051681032813,Madison,3
420,33.1879238424526,-96.5723933303568,Collin,26
421,34.2225707933283,-82.458712050176,Abbeville,28
422,41.5778861946559,-96.6539835495926,Dodge,18
423,27.1824818877811,-82.364980723363,Sarasota,2
424,43.8195809757657,-89.3987481772623,Marquette,16
425,35.7040449083658,-113.757910291737,Mohave,55
426,34.5998814553906,-112.553863926397,Yavapai,55
427,33.9044792842673,-78.9761494622779,Horry,28
428,40.2108298554313,-75.3672952515259,Montgomery,19
429,46.237023137907,-116.426251782507,Lewis,7
430,18.4336934180819,-66.674969139344,Arecibo,49
431,36.9317430780734,-82.6259551634449,Norton,52
432,40.8620298321178,-74.5444441675347,Morris,15
433,40.2106416358297,-93.1115222328203,Sullivan,45
434,38.4794184455643,-99.9161794469658,Ness,47
435,29.1678283462591,-95.4342558524979,Brazoria,26
436,40.7455891847961,-95.6046765467324,Fremont,54
437,43.9977891817251,-69.5257564638411,Lincoln,37
438,42.7810814298828,-76.8237786318107,Seneca,38
439,37.1106700139585,-84.11780017815,Laurel,34
440,35.5128264337115,-84.8133871946073,Meigs,30
441,36.6547347843,-93.0411071320781,Taney,45
442,28.3513711228421,-98.1247856566076,Live Oak,26
443,38.6327516073754,-92.5830546934288,Moniteau,45
444,38.1128217507955,-76.799907563407,Westmoreland,52
445,36.1605380789361,-80.665337261774,Yadkin,9
446,37.1918569470584,-120.717668625922,Merced,14
447,35.9876599532143,-99.0078915886456,Dewey,29
448,35.7495216404794,-81.7047017341323,Burke,9
449,35.3637930825713,-78.0041311677512,Wayne,9
450,41.8145746205949,-79.2741433707577,Warren,19
451,34.0887428934655,-93.9934933434837,Howard,43
452,35.9291584517622,-80.5444681292086,Davie,9
453,35.6812435503419,-82.0487015220508,McDowell,9
454,33.6639661047862,-93.3071433002157,Nevada,43
455,40.0028993304253,-102.424226324356,Yuma,27
456,41.0279212563453,-76.6585617165646,Montour,19
457,40.6574939878866,-73.838753315864,Queens,38
458,30.1956117445823,-82.991492378923,Suwannee,2
459,45.472943902118,-84.4920630380958,Cheboygan,42
460,43.9906686401085,-84.3882498639088,Gladwin,42
461,38.0335329920506,-83.9131023006307,Montgomery,34
462,34.6867048038245,-80.7054325620706,Lancaster,28
463,37.545799154937,-85.6979155219394,Larue,34
464,42.3897291689069,-96.0447949173757,Woodbury,54
465,30.0195666116587,-83.6189726759287,Taylor,2
466,37.191599201103,-89.3376425274501,Alexander,3
467,38.2610713070343,-90.5376891162166,Jefferson,45
468,39.0580193196854,-90.9600454497238,Lincoln,45
469,31.9740223046584,-81.0924253598641,Chatham,22
470,30.0438388541394,-82.3714417193809,Union,2
471,44.0387746193447,-106.584632795776,Johnson,31
472,38.7024099828704,-87.0720684551594,Daviess,48
473,44.716238661633,-85.5522027817897,Grand Traverse,42
474,30.6528705315821,-92.8278792153084,Allen,21
475,44.3890308907969,-99.996051470009,Hughes,50
476,44.5473576875876,-99.4871085967761,Hyde,50
477,33.6658060525379,-80.216404962007,Clarendon,28
478,45.6694352910048,-109.394774517246,Stillwater,46
479,35.5964201963468,-85.205155108688,Bledsoe,30
480,36.8355561408387,-87.1791534272425,Todd,34
481,36.2983026892097,-88.7177438515132,Weakley,30
482,37.2580490849006,-93.3419904699988,Greene,45
483,39.3503577591863,-100.441832348077,Sheridan,47
484,32.7535346872313,-89.5240572689982,Leake,44
485,18.2119147213641,-66.0507654188119,Caguas,49
486,18.4430765113705,-66.8626349572665,Camuy,49
487,33.6556669768138,-88.7815740207628,Clay,44
488,31.4771453338307,-90.8978501214511,Franklin,44
489,32.7534965622677,-89.1175728287459,Neshoba,44
490,45.4187969235678,-99.2153265170721,Edmunds,50
491,18.3755558492458,-65.800243328916,Río Grande,49
492,31.4292672669634,-86.9936813426162,Conecuh,23
493,39.145185628318,-84.9732607009683,Dearborn,48
494,38.9064198575725,-86.0375380631963,Jackson,48
495,34.2898881130948,-88.680416225547,Lee,44
496,30.8797727191927,-91.4200286849676,West Feliciana,21
497,35.2079416249033,-90.308858538729,Crittenden,43
498,30.7953910452603,-85.2154596176565,Jackson,2
499,33.616612108582,-100.778860649357,Dickens,26
500,38.2737389050607,-77.1565068521275,King George,52
501,47.2056612792546,-119.451768883365,Grant,20
502,44.7268139595696,-94.9471432505817,Renville,4
515,18.2510736339821,-66.1273464632423,Aguas Buenas,49
517,40.1764659014247,-99.9122732805275,Furnas,18
518,30.8783441046644,-84.5790701611916,Decatur,22
519,39.8644164597192,-85.0098761458882,Wayne,48
520,36.9655812971915,-85.9336631912952,Barren,34
521,41.2200386131945,-98.5170946377611,Howard,18
522,47.3567522769546,-102.618243649383,Dunn,33
523,38.4463895151344,-120.651115625975,Amador,14
524,36.3804933423382,-84.9324585254459,Fentress,30
525,38.2368379473428,-95.734111791595,Coffey,47
526,41.9161122909766,-85.0590330976334,Branch,42
527,45.2827139918246,-95.6814276921701,Swift,4
528,42.7325458466614,-93.2624730042903,Franklin,54
529,33.2878507355554,-83.9571694964639,Butts,22
530,39.2865601244047,-104.135891608592,Elbert,27
531,31.9004024513062,-97.6343490765697,Bosque,26
532,41.4998007245967,-71.2809957976002,Newport,6
533,34.163497938854,-93.6563416731554,Pike,43
534,39.0182788921838,-108.466450737583,Mesa,27
535,37.6066298991767,-91.5078825344643,Dent,45
536,37.1249707504594,-81.560659166289,Tazewell,52
569,38.0268201332219,-77.3469609708778,Caroline,52
570,43.082617415246,-96.1778827098087,Sioux,54
537,15.1992652148782,145.777379252244,Saipan,35
538,33.2937874117689,-85.4590701761995,Randolph,23
539,36.4341567288582,-81.5003432998128,Ashe,9
540,37.7515977078276,-108.517221218372,Dolores,27
541,40.0916056590034,-82.48314738892,Licking,25
542,18.3686639128667,-65.7121531723872,Luquillo,49
543,32.9986443118692,-87.1264390836356,Bibb,23
544,32.4042862016956,-88.6625415315695,Lauderdale,44
545,45.4260978993739,-96.4109172396162,Big Stone,4
546,44.0345881187311,-94.0670329372889,Blue Earth,4
547,38.3623261053615,-79.5685437385216,Highland,52
548,38.1850241676227,-77.6559719595759,Spotsylvania,52
549,43.2974284642689,-71.0294014426899,Strafford,8
550,32.459007113542,-83.6662425565211,Houston,22
551,45.7916164191378,-86.8705992601163,Delta,42
552,35.1992581631093,-94.2739095044447,Sebastian,43
553,37.0215971543009,-122.009788102264,Santa Cruz,14
554,31.4838062078374,-81.3755663745849,McIntosh,22
555,33.0138972674055,-83.9186821492454,Monroe,22
556,36.2721350789021,-90.0909055305281,Dunklin,45
557,35.4012788082963,-100.269647544502,Wheeler,26
558,34.2255141669357,-84.1250212554902,Forsyth,22
559,28.0087830716222,-97.5182740202401,San Patricio,26
560,31.1484222345541,-90.1061368220667,Walthall,44
561,39.4954645962001,-92.0007358854376,Monroe,45
562,38.519636388544,-84.8281099067713,Owen,34
563,36.2114502485012,-89.7853789728474,Pemiscot,45
564,41.3973022539753,-97.9922509459132,Nance,18
565,45.0043672206436,-88.7100057064323,Menominee,16
566,32.1623587349194,-94.3056454930749,Panola,26
567,38.1449737196246,-83.7426672090156,Bath,34
568,31.8133256771421,-95.6525471782389,Anderson,26
580,33.9207999661209,-88.9478636354144,Chickasaw,44
581,55.4922488248828,-131.033822643583,Ketchikan Gateway,40
582,43.9878745299843,-84.8478362985612,Clare,42
583,39.8277963097891,-97.6506227798141,Republic,47
584,29.0634519579753,-81.1485721309262,Volusia,2
585,35.5424442425312,-97.98238326643,Canadian,29
586,18.4630482612603,-66.9262663899995,Quebradillas,49
587,18.3286016841453,-64.9670826679888,St. Thomas,56
588,34.2631627028762,-85.2142786429732,Floyd,22
616,41.772161539181,-77.2542642529059,Tioga,19
631,42.3911118213276,-96.5645130128114,Dakota,18
647,39.7847564916765,-100.459899544469,Decatur,47
648,40.8456930110148,-85.7940056731498,Wabash,48
649,41.0908710995903,-85.0665628115004,Allen,48
650,41.3248489694716,-86.2617612998921,Marshall,48
670,42.2573930730728,-78.0275626529212,Allegany,38
671,41.772320735362,-91.1324124853019,Cedar,54
672,38.5417788850654,-86.4950692914053,Orange,48
673,33.7715285675386,-84.2264078334389,DeKalb,22
674,34.4643197212993,-84.4656391765878,Pickens,22
675,47.8805647319537,-110.435203719718,Chouteau,46
676,42.4300205972966,-99.9295064537007,Brown,18
677,36.4035128058203,-84.1493845965018,Campbell,30
678,36.0827889599823,-78.2856139427368,Franklin,9
679,39.3009801601726,-76.6106474270229,Baltimore,5
680,38.4561871454594,-96.1526397609016,Lyon,47
589,34.0705119294555,-101.826881366541,Hale,26
590,39.5808763808605,-118.335778873053,Churchill,39
591,40.1764332071087,-98.4999473780131,Webster,18
592,40.4037764455735,-91.164697533103,Hancock,3
593,43.334846563113,-97.754416630609,Hutchinson,50
594,44.1421943142901,-120.356584171228,Crook,17
595,44.8574839800832,-72.9119986836009,Franklin,10
596,34.964925562305,-101.357404309438,Armstrong,26
597,40.7715210508651,-84.1057793138238,Allen,25
598,33.4828523673326,-82.4813675846764,McDuffie,22
599,43.4267756681753,-89.9483657706972,Sauk,16
600,35.8598662106745,-92.1566835666696,Stone,43
601,45.579829313798,-117.181068985405,Wallowa,17
602,37.1502690241187,-76.2705664735061,Poquoson,52
603,38.3317953408585,-80.007752516821,Pocahontas,1
604,33.7855310466441,-98.2085033028338,Clay,26
605,37.3133113771583,-76.7737502825971,James City,52
606,41.1987931587873,-101.661351215099,Keith,18
607,40.5111130577489,-99.4145428929963,Phelps,18
608,30.2292239834291,-93.3579452888758,Calcasieu,21
609,33.0765357442183,-84.1394626893418,Lamar,22
610,46.662952053976,-87.5735026462917,Marquette,42
611,41.4353813690237,-72.5231194027405,Middlesex,11
612,35.7932782901241,-80.212684817659,Davidson,9
613,38.7541623641108,-88.4901923891913,Clay,3
614,40.1282549436467,-92.1480724082614,Knox,45
615,39.7821051355768,-93.5482817374958,Livingston,45
617,39.559883003675,-83.4560972809713,Fayette,25
618,42.3401381552508,-72.6637654341,Hampshire,51
619,36.7513166435694,-86.1904186842834,Allen,34
620,36.0440565232579,-79.3994708527352,Alamance,9
621,37.8777875598537,-96.2326356674055,Greenwood,47
622,42.3486594704901,-70.9856367175004,Suffolk,51
623,43.8201427898893,-112.311283338866,Jefferson,7
624,29.4567333077862,-97.4925237531478,Gonzales,26
625,35.1293466862242,-85.6220335132376,Marion,30
626,45.0311074449647,-83.1652019250657,Alpena,42
627,36.8012652473371,-84.8286312036225,Wayne,34
628,35.9263484153515,-85.4551771605354,White,30
629,33.593809789979,-96.1068276866011,Fannin,26
630,39.7880806137704,-95.1467942341899,Doniphan,47
632,45.1517711476325,-86.0384952496877,Leelanau,42
633,37.1169121631205,-76.8883095740089,Surry,52
634,28.3215753273288,-97.1595214836287,Refugio,26
635,39.4386456622746,-84.5756569329276,Butler,25
636,31.7768809555255,-84.4369221861364,Terrell,22
637,33.5419008044514,-84.3576542090962,Clayton,22
638,43.0405280956358,-108.630418120838,Fremont,31
639,38.9500956740557,-84.9650290822158,Ohio,48
640,33.5441239989895,-82.2640625854096,Columbia,22
641,40.8759049725147,-102.351791199024,Sedgwick,27
642,46.4965456701807,-108.39770570905,Musselshell,46
643,40.4154403190375,-76.7794743943244,Dauphin,19
644,44.0220118171366,-96.6709221839265,Moody,50
645,38.5086167671014,-81.9089929364458,Putnam,1
646,41.1394147162489,-74.6907537243685,Sussex,15
651,37.208840211206,-86.2386201488628,Edmonson,34
652,38.8868165911057,-89.4355494665962,Bond,3
653,39.961811618694,-90.750342274464,Brown,3
654,44.8235439704884,-94.2724202217402,McLeod,4
655,44.9465887000815,-91.8964143175154,Dunn,16
656,38.1086778955714,-105.367471784809,Custer,27
657,37.4780955139915,-90.3450261457853,Madison,45
658,32.3034903000681,-100.406052467492,Nolan,26
659,41.6487307532405,-75.3032577062761,Wayne,19
660,43.1073811932388,-73.8639045605208,Saratoga,38
661,30.6607998954771,-96.3023858296544,Brazos,26
662,34.0244900073614,-96.7691316346836,Marshall,29
663,39.6214808974613,-78.6989015967413,Allegany,5
666,39.605263251101,-80.6390976238864,Wetzel,1
667,44.3191276311827,-90.805178237239,Jackson,16
668,46.0174671203262,-123.716772800881,Clatsop,17
669,46.5777251932352,-122.392409568506,Lewis,20
664,41.9135061007383,-100.555845599351,Thomas,18
665,46.1126505317873,-101.040341454578,Sioux,33
681,42.0362382236999,-94.8605592809306,Carroll,54
682,32.0016607739684,-91.3400729958586,Tensas,21
683,35.4426471415415,-84.2527890762548,Monroe,30
684,37.9991525147432,-101.791256479321,Hamilton,47
685,42.7341351248572,-94.6787466079267,Pocahontas,54
686,44.0616913560608,-116.397226680278,Gem,7
687,35.7415795588825,-91.569724406723,Independence,43
688,34.7542703716373,-91.8886676048423,Lonoke,43
689,40.9558499961954,-87.3975353621014,Newton,48
690,34.3754358952078,-83.229175341722,Franklin,22
691,26.5534894569127,-81.1659007844214,Hendry,2
692,33.5660907187995,-82.8787645299639,Taliaferro,22
693,29.8537289255427,-94.1534394556098,Jefferson,26
694,46.5981896338974,-110.88563859601,Meagher,46
695,37.2865581920365,-107.843335493922,La Plata,27
696,31.0376717060304,-97.4782023995473,Bell,26
697,32.7545579324705,-88.6411594303722,Kemper,44
698,34.0509558655648,-93.176367496559,Clark,43
699,42.6863418784597,-121.650125338236,Klamath,17
700,43.4638832611955,-76.2086869745058,Oswego,38
701,18.288417758715,-66.252550892589,Naranjito,49
702,34.1759555386731,-85.6037938266263,Cherokee,23
703,29.747204993011,-99.2462441214968,Bandera,26
704,46.2297358696264,-106.730815680044,Rosebud,46
705,36.4817645414268,-103.470993114588,Union,13
706,46.04248569274,-86.1773001064874,Schoolcraft,42
707,41.8881456584991,-74.2585694776517,Ulster,38
708,39.8035321466249,-74.9597563271731,Camden,15
709,39.0856617608169,-90.3566833908967,Jersey,3
710,37.7601514637688,-77.4908743208891,Hanover,52
711,38.916661247574,-101.763573990156,Wallace,47
712,46.9482623040465,-86.572171734722,Alger,42
713,36.381669742029,-91.818237301058,Fulton,43
714,26.3967205869121,-98.1810705063844,Hidalgo,26
715,34.6400865858751,-79.1035366284276,Robeson,9
716,43.5541672274835,-85.8009116045424,Newaygo,42
717,43.784194515063,-111.659339480809,Madison,7
718,38.0921661011885,-87.2720543386316,Warrick,48
719,37.1041560910454,-85.2806484893176,Adair,34
720,38.7568747184077,-84.8593124487634,Gallatin,34
721,38.4418072275529,-84.331385356458,Harrison,34
722,43.9117256893691,-69.839305862644,Sagadahoc,37
723,45.8137290434882,-109.941048174754,Sweet Grass,46
724,33.6268081162401,-96.677725175606,Grayson,26
725,39.8537998253756,-80.2228738459229,Greene,19
726,67.0108112787914,-160.007869364454,Northwest Arctic,40
727,38.9147512519162,-99.3172316254866,Ellis,47
728,32.7626642572213,-87.6291177354498,Hale,23
729,32.6384656874083,-87.2944008396879,Perry,23
730,34.7004337176172,-87.8049839982807,Colbert,23
731,37.6477355363281,-98.7395956075775,Pratt,47
732,38.2067344471224,-84.2171509605132,Bourbon,34
733,35.8427048526351,-86.4167358501131,Rutherford,30
734,31.1539909955978,-83.4304650830706,Cook,22
735,38.4813031674267,-100.466398317121,Lane,47
736,36.7887251504734,-99.6673616259824,Harper,29
737,40.0103666201581,-88.5910912079504,Piatt,3
738,18.0559663209725,-65.8633020996702,Yabucoa,49
739,48.7909972631436,-102.518259923512,Burke,33
740,36.0359979511632,-78.8763242470321,Durham,9
741,41.6828527525739,-95.8169209009133,Harrison,54
742,42.8788290649509,-99.7123497253253,Keya Paha,18
743,42.4279662283943,-94.1817880727316,Webster,54
744,37.4127634430971,-88.5615845543628,Pope,3
745,36.2505341032002,-85.9567145674867,Smith,30
746,36.6827747128944,-79.87395727393,Henry,52
747,38.8183910488392,-77.0861702751324,Alexandria,52
748,41.0317595971068,-91.9488774299934,Jefferson,54
749,47.1223416919703,-112.390347445301,Lewis and Clark,46
750,40.2975115917022,-110.424760033772,Duchesne,24
751,36.7309771753316,-98.3240015062725,Alfalfa,29
752,33.3862927413175,-95.6722708232221,Delta,26
753,36.3920428571225,-86.15675275791,Trousdale,30
754,37.2442933032918,-83.2214815926447,Perry,34
755,44.7600578829009,-96.6679741476796,Deuel,50
756,42.4321485773966,-122.728430834472,Jackson,17
757,18.1341701068001,-67.1140351283928,Hormigueros,49
758,28.8662113784483,-99.7605957256635,Zavala,26
759,41.5459746766888,-103.710476762397,Banner,18
765,41.3307142290391,-94.0155619387925,Madison,54
766,26.1518563325782,-80.455885930056,Broward,2
767,32.1217203180698,-82.331292990972,Toombs,22
768,43.4433116289946,-82.6457538611073,Sanilac,42
769,32.8977580304142,-96.4077811090915,Rockwall,26
770,42.2847760043771,-83.2611249902725,Wayne,42
771,43.6742401395749,-95.7533868553834,Nobles,4
772,46.6082573129358,-93.4154290988686,Aitkin,4
773,48.2689344610175,-98.7201385489915,Ramsey,33
774,36.3901145671654,-78.9717134596788,Person,9
775,38.9143245164461,-99.8727362965334,Trego,47
760,33.6146250319173,-101.299958446652,Crosby,26
761,18.3622092507335,-65.6065608161933,Fajardo,49
762,32.8531374081529,-87.9522343424052,Greene,23
763,44.283980209068,-112.351350428848,Clark,7
764,43.2041300326724,-94.206719932316,Kossuth,54
776,33.2836981069353,-90.9474546430136,Washington,44
777,32.3270730711776,-98.8323222516056,Eastland,26
778,32.7413905555251,-90.9892124123214,Issaquena,44
779,29.0820812772593,-97.3567784329469,DeWitt,26
780,31.2547645860514,-94.6118485423763,Angelina,26
781,34.0061370572438,-81.7269249120675,Saluda,28
782,38.1616348922073,-91.9248859892135,Maries,45
783,34.2908084322312,-91.3749055190433,Arkansas,43
784,37.1063511968851,-93.8329365349222,Lawrence,45
785,38.037424580458,-78.4855724297906,Charlottesville,52
786,41.404152406702,-89.5286775554319,Bureau,3
787,38.8039619401565,-82.9928310416646,Scioto,25
788,35.8580879339125,-82.7057612565528,Madison,9
789,42.6899037620396,-114.264025103172,Jerome,7
790,45.5860222143979,-95.4444822164715,Pope,4
791,38.6847135367906,-78.1592527971686,Rappahannock,52
792,37.6047749906763,-79.14510703381,Amherst,52
793,34.3575285243623,-119.126027208605,Ventura,14
794,39.002686358488,-87.7595568683194,Crawford,3
795,39.1193027802569,-105.717174604998,Park,27
796,34.198008388428,-118.26101936769,Los Angeles,14
797,32.769404355441,-113.905563808991,Yuma,55
798,34.5033590288831,-84.8757528977465,Gordon,22
799,42.3851847810756,-94.6404136189477,Calhoun,54
800,27.3434043412223,-81.3409710132751,Highlands,2
801,38.3642764305795,-86.8798020601984,Dubois,48
802,37.9390598412135,-76.9408985767481,Essex,52
803,33.6199251806591,-79.727712499842,Williamsburg,28
804,44.1172179046604,-73.7727090974321,Essex,38
805,43.3773984476236,-93.2608475508089,Worth,54
806,35.0483393818096,-96.2502429245662,Hughes,29
807,37.2666340786344,-82.0360330939285,Buchanan,52
808,37.7876014283422,-80.0069876174978,Alleghany,52
809,33.4729092676817,-88.4433134998634,Lowndes,44
810,38.685069956119,-85.7474681799737,Scott,48
811,37.9551831979533,-102.393348996858,Prowers,27
834,40.7352023022437,-94.2439719251408,Ringgold,54
867,30.4982930291157,-100.538187497126,Sutton,26
868,18.0829372913574,-66.9435789792937,Sabana Grande,49
869,35.6161305032393,-95.3795271675964,Muskogee,29
870,36.9695717105157,-93.188853850868,Christian,45
871,18.2890180364019,-66.5164422093075,Ciales,49
872,31.2058685550648,-89.5086878054048,Lamar,44
873,39.1034546725687,-85.2623863716948,Ripley,48
874,47.3092184482662,-101.831530216084,Mercer,33
812,38.0673209622792,-78.9012086747438,Waynesboro,52
813,35.9798606609852,-85.8327516540303,DeKalb,30
814,41.1923895399156,-79.4209637038573,Clarion,19
815,44.0219514306235,-97.610245110938,Miner,50
816,44.066349328179,-98.6297268938967,Jerauld,50
817,39.3069999151549,-85.5011430662626,Decatur,48
818,57.1804506751183,-135.30870858522,Sitka,40
819,45.5468674088354,-122.415339315497,Multnomah,17
820,35.3883667019444,-85.7225823784239,Grundy,30
821,47.1086455122062,-94.9166359798158,Hubbard,4
822,46.1079422892842,-97.6307179556754,Sargent,33
823,44.4963906601028,-75.0689700296586,St. Lawrence,38
824,37.3623265511621,-90.9690828170074,Reynolds,45
825,38.4493148029856,-121.344243415134,Sacramento,14
826,41.1166203691214,-84.5801955892905,Paulding,25
827,40.7291866514186,-85.2212198552707,Wells,48
828,36.9316031278022,-80.362592400969,Floyd,52
829,34.5383440857615,-120.030786179611,Santa Barbara,14
830,38.0229965886538,-81.7112126310965,Boone,1
831,34.8172864583351,-89.1884754824078,Benton,44
832,37.3527153050797,-88.0972227023035,Crittenden,34
833,43.0820642884597,-94.6781370697846,Palo Alto,54
835,41.7734491612287,-70.2381365828682,Barnstable,51
836,37.6227070166716,-76.50591357329,Middlesex,52
837,41.1281451375476,-78.9994214536337,Jefferson,19
838,41.4722067655363,-87.3763653667092,Lake,48
839,35.5137978766427,-86.4588856990939,Bedford,30
840,36.5511571024916,-85.5438592157857,Clay,30
841,39.5202868788539,-88.2217953459142,Coles,3
842,35.7610127807086,-89.6314442098603,Lauderdale,30
843,44.7092250045933,-117.675341263335,Baker,17
844,42.3938000350585,-76.8751816678269,Schuyler,38
845,36.6953299617214,-77.5356106759538,Emporia,52
846,35.702997783139,-96.8809162079362,Lincoln,29
847,38.4805375018335,-101.80596844296,Greeley,47
848,32.7360041822367,-84.90898807855,Harris,22
849,32.7505866259388,-81.611934578294,Screven,22
850,18.4222580273267,-66.068325511364,San Juan,49
851,33.1791245678629,-100.25330552047,Stonewall,26
852,41.3338851616075,-84.0682304337745,Henry,25
853,43.9407383131762,-71.8205501923455,Grafton,8
854,36.9055088482933,-94.3392464986895,Newton,45
855,38.0218915840635,-87.8684711748545,Posey,48
856,28.3526879498668,-98.5678411140633,McMullen,26
857,39.2733166333835,-88.2402304459029,Cumberland,3
858,37.7786162476909,-79.986755956947,Covington,52
859,44.0055966448774,-72.376606549811,Orange,10
860,38.3916666305202,-97.6480798381175,McPherson,47
861,32.9043091107092,-111.344713905058,Pinal,55
862,41.6017977673607,-84.1300748024176,Fulton,25
863,37.5728931396126,-105.788288200284,Alamosa,27
864,28.8475697076972,-82.5201067241191,Citrus,2
865,18.3233669793864,-65.300800992731,Culebra,49
866,18.4720209796746,-66.2620306323978,Dorado,49
875,34.3508983325462,-82.9642475974728,Hart,22
876,32.3020349230776,-92.5577401028619,Jackson,21
877,37.8546617298725,-76.3795214770098,Northumberland,52
878,29.5274915865528,-95.7708863350064,Fort Bend,26
879,43.8003757377568,-89.0448614227625,Green Lake,16
880,48.2279798035597,-112.226388943698,Pondera,46
881,42.6684767621528,-88.5419219926404,Walworth,16
882,38.5388085806437,-118.435214243571,Mineral,39
883,40.472766342111,-90.2074727241079,Fulton,3
884,40.9404608750825,-72.6852403964421,Suffolk,38
885,39.6255458625021,-84.925142009344,Union,48
886,36.6286739960683,-94.3483586607481,McDonald,45
887,41.8506075435523,-103.707946659596,Scotts Bluff,18
888,35.4802873267075,-104.815854683226,San Miguel,13
889,32.6011364656267,-85.3555627018992,Lee,23
890,32.7776458502887,-97.8050966611567,Parker,26
891,46.1101234986518,-98.5046707741201,Dickey,33
892,46.9361050914889,-98.071578720012,Barnes,33
893,44.5794829357043,-94.2321562579046,Sibley,4
894,32.8812700554022,-84.299343533323,Upson,22
895,38.5252925761021,-122.922544654652,Sonoma,14
896,46.3281829508,-84.5293644803622,Chippewa,42
897,43.3877316266129,-111.614925056689,Bonneville,7
898,33.9931962015972,-83.7127549711933,Barrow,22
899,31.7525846549671,-81.7457671929913,Long,22
900,29.3502076116708,-100.417946691261,Kinney,26
901,36.8355109393193,-94.8104368500248,Ottawa,29
902,41.0001930822984,-78.4741112104128,Clearfield,19
903,42.9436511092405,-84.6015162013183,Clinton,42
904,17.9530033239603,-66.3866938415557,Santa Isabel,49
905,39.2310400696029,-89.4788703296331,Montgomery,3
906,34.8807714599093,-88.5802645622362,Alcorn,44
907,34.3567578079266,-89.4849192703252,Lafayette,44
908,31.5997036831219,-92.5595204414095,Grant,21
909,40.4308479054745,-95.4280930147665,Atchison,45
910,39.8599951882954,-88.961596759479,Macon,3
911,41.9144140770306,-85.5277421097949,St. Joseph,42
912,37.9922849942816,-88.9241539511964,Franklin,3
913,47.2776954880549,-106.992830142997,Garfield,46
914,40.5244686916163,-98.5012089474798,Adams,18
915,44.0037522256483,-92.401770569591,Olmsted,4
916,40.6597968774156,-74.3085887603117,Union,15
917,18.3363112847289,-65.9991240676817,Trujillo Alto,49
918,30.6851468954022,-88.1975295796918,Mobile,23
919,43.6743108548382,-97.368443230327,McCook,50
920,33.7212061491162,-87.7388619618879,Fayette,23
921,32.914372215937,-85.3920429428939,Chambers,23
922,36.4176557374813,-77.396739590035,Northampton,9
923,40.6184251903943,-108.207298347627,Moffat,27
924,37.2641084916952,-85.5531049802329,Green,34
925,39.4148645305885,-85.0602848710259,Franklin,48
926,35.4858332159786,-76.8451607970751,Beaufort,9
927,18.2106459156129,-66.5884453363266,Jayuya,49
928,46.9773895124061,-100.468732952091,Burleigh,33
929,35.6395397163745,-80.5246405991391,Rowan,9
930,46.2086924763153,-88.5305269325615,Iron,42
931,45.1523816296744,-95.0047416622658,Kandiyohi,4
932,37.7393195021204,-83.4931752177039,Wolfe,34
933,18.1831014305356,-67.6050668868723,Mayagüez,49
934,35.174379025331,-98.3751467583266,Caddo,29
935,39.5864203578312,-105.250477024982,Jefferson,27
936,38.4202968957079,-82.2417166460482,Cabell,1
937,31.3661921304679,-101.523008416566,Reagan,26
938,35.5806505230658,-92.5157027902727,Van Buren,43
939,39.6341704455163,-106.116379024145,Summit,27
940,37.2377526700171,-96.8374891685339,Cowley,47
941,35.5700549050344,-93.4599100345888,Johnson,43
942,43.6611215906638,-74.497355257597,Hamilton,38
943,37.481251639052,-80.2123441345934,Craig,52
944,31.7732068678167,-99.4536376478574,Coleman,26
945,65.5093797286816,-151.38996167631,Yukon-Koyukuk,40
946,35.3996292218494,-110.321402802544,Navajo,55
947,31.532391547748,-90.453998208655,Lincoln,44
948,35.3868704913698,-80.5520553918327,Cabarrus,9
949,37.2809053732831,-92.8758770393654,Webster,45
950,40.990610088117,-112.111236117552,Davis,24
951,44.0071066893757,-95.1811533002523,Cottonwood,4
952,27.3862919697446,-80.8885759565307,Okeechobee,2
953,34.8340100132646,-83.9907558213686,Union,22
954,42.4700957488868,-92.3088197264075,Black Hawk,54
955,31.3431998459182,-93.85180238149,Sabine,26
956,39.0773714433879,-83.0668541547166,Pike,25
957,33.2895498475058,-87.5250299438754,Tuscaloosa,23
958,31.9892419600894,-87.3081990892019,Wilcox,23
959,33.4941023721906,-89.6163956537244,Montgomery,44
960,40.5067072482318,-98.9480216452781,Kearney,18
973,35.9731784476766,-88.4502607248195,Carroll,30
984,39.5783274969633,-75.6389820499081,New Castle,12
985,43.7594587843146,-111.207700606006,Teton,7
961,36.2784137139308,-100.815653969424,Ochiltree,26
962,44.5268157496742,-107.995214684895,Big Horn,31
963,35.8032506801933,-87.4733082361755,Hickman,30
964,34.65194967688,-90.3754989975207,Tunica,44
965,40.3546685384216,-93.9920637262785,Harrison,45
966,18.3289887975239,-65.8878890504693,Canóvanas,49
967,39.2059730343322,-85.8976045300949,Bartholomew,48
968,33.9205455564438,-84.867288475602,Paulding,22
969,38.934047656373,-83.8674279177793,Brown,25
970,36.1408328056868,-85.4951907279155,Putnam,30
971,48.2217462590803,-101.54182808756,Ward,33
972,40.1763469213429,-101.042272419867,Hitchcock,18
974,33.1768244406508,-101.816123836887,Lynn,26
975,42.6337635592904,-75.0326061161532,Otsego,38
976,35.0059435146485,-79.7478344226734,Richmond,9
977,35.0173611839318,-79.2371059420401,Hoke,9
978,40.6485009942334,-96.1347754105263,Otoe,18
979,35.4050218749454,-102.602873457012,Oldham,26
980,40.9117199348844,-79.9129925527845,Butler,19
981,45.844197967909,-115.467451033078,Idaho,7
982,38.3588720777065,-97.0968909797852,Marion,47
983,37.5722427920605,-78.5287107012159,Buckingham,52
986,41.4673297753332,-90.5674258916025,Rock Island,3
987,37.4012074011319,-76.5229665721918,Gloucester,52
988,33.9971979054351,-94.2412162926913,Sevier,43
989,40.7614914978324,-86.3459465543948,Cass,48
990,42.6936866542459,-112.840669599982,Power,7
991,40.5828585627459,-86.5634841315793,Carroll,48
992,40.0076380529047,-75.1339626993491,Philadelphia,19
993,43.9049973173289,-107.6828610148,Washakie,31
994,36.3414493567834,-76.1611200185594,Camden,9
995,42.4520162613239,-76.4736586229699,Tompkins,38
996,34.268785088827,-91.9315145974225,Jefferson,43
997,33.9574675586946,-91.7333248711922,Lincoln,43
998,43.5938648463639,-90.8343821876876,Vernon,16
999,37.5551488235661,-90.773490358918,Iron,45
1000,33.1495558647189,-95.5639501768146,Hopkins,26
1001,42.6001763903874,-73.9735585946687,Albany,38
1002,31.3177325696478,-95.422677161797,Houston,26
1003,39.7273472671968,-81.0829172856745,Monroe,25
1004,38.5231613141241,-99.3092409486538,Rush,47
1005,40.0403785242713,-86.893299798529,Montgomery,48
1006,37.5630612769282,-101.78418326044,Stanton,47
1007,37.5947984930136,-83.7162763364264,Lee,34
1008,48.2452683503314,-93.7833663297485,Koochiching,4
1009,29.4489581212089,-98.5200254854686,Bexar,26
1010,40.0924573647364,-105.357703780732,Boulder,27
1011,36.050987796212,-83.4463087845048,Jefferson,30
1012,36.3018781377505,-95.230845868524,Mayes,29
1013,43.9784278930826,-94.6140606082671,Watonwan,4
1014,43.4123252447937,-113.980396624815,Blaine,7
1015,30.2677218671793,-92.814120921228,Jefferson Davis,21
1016,44.7155771886662,-100.132201860402,Sully,50
1017,39.7620145983491,-104.876359284557,Denver,27
1018,34.5881926723235,-96.2978566440276,Coal,29
1019,45.5167736510032,-104.5361553685,Carter,46
1020,31.3687301917752,-102.043034953069,Upton,26
1021,38.3118253122527,-87.5845947111087,Gibson,48
1022,41.1976566613608,-103.714949917056,Kimball,18
1023,41.5905607830879,-88.4288497452991,Kendall,3
1024,38.9047662221674,-77.0162901997674,District of Columbia,53
1025,38.4021847138215,-108.269355827332,Montrose,27
1026,45.173925448703,-93.9630473689419,Wright,4
1027,42.578504254953,-87.6531188825176,Kenosha,16
1028,39.627825643771,-106.695299223443,Eagle,27
1029,37.7597150035532,-122.693975621692,San Francisco,14
1030,38.0037441741394,-108.40582773671,San Miguel,27
1031,61.1483350095673,-149.194720752094,Anchorage,40
1032,29.9121843109962,-81.4098873355919,St. Johns,2
1033,33.3473070816596,-89.2483811425887,Choctaw,44
1034,40.1139293652036,-93.5653354690472,Grundy,45
1035,43.9900060794975,-85.8017029070925,Lake,42
1036,42.9485348851324,-86.4218822814818,Ottawa,42
1037,41.8954008073547,-87.646160232445,Cook,3
1038,37.7627465792637,-88.2305034684818,Gallatin,3
1039,34.1538283357537,-82.1259287099136,Greenwood,28
1040,38.5645175395815,-95.2859483113286,Franklin,47
1041,46.8923420649386,-96.4906468998401,Clay,4
1042,35.5832216323535,-89.2838364007359,Haywood,30
1043,41.520965493637,-113.08208624789,Box Elder,24
1044,34.7684002013184,-88.9088980484382,Tippah,44
1045,39.8606128581951,-80.6633865310323,Marshall,1
1046,38.8344683205965,-81.6747943289213,Jackson,1
1047,43.3539002796761,-115.469178599242,Elmore,7
1048,39.4430742507787,-76.6163189148387,Baltimore,5
1049,48.0693859872446,-99.3660274688359,Benson,33
1050,39.3438352293918,-91.1713633054832,Pike,45
1051,38.5984692457076,-82.5367524102165,Lawrence,25
1052,37.0530460208674,-89.568514687833,Scott,45
1053,38.8455149278368,-83.4721517803265,Adams,25
1054,32.2362586701251,-98.2179666827878,Erath,26
1055,34.6310212253595,-83.5311158881135,Habersham,22
1056,32.8024055134729,-83.1712490547746,Wilkinson,22
1057,39.6302839098925,-80.046544146395,Monongalia,1
1058,40.8507725732515,-82.9197777014378,Crawford,25
1059,27.1863202020466,-81.8093011106748,DeSoto,2
1060,41.4667792286231,-72.1064968929501,New London,11
1061,40.0520535805209,-81.4942561907436,Guernsey,25
1062,42.5950275494385,-85.3089682188258,Barry,42
1063,36.7469429870163,-93.4560009773624,Stone,45
1064,37.5294205918833,-77.4755589046462,Richmond,52
1065,36.4018949539469,-80.2396079336716,Stokes,9
1066,41.0290323023157,-93.7851578524859,Clarke,54
1067,42.8625919295499,-91.8443207311076,Fayette,54
1068,38.0551833419505,-122.74885855644,Marin,14
1069,34.9658539509307,-101.896945895886,Randall,26
1070,32.1077245016025,-94.7618791266512,Rusk,26
1071,41.3343734673281,-93.5613593566232,Warren,54
1072,40.8553982404109,-84.5860991251357,Van Wert,25
1073,26.9564753571463,-81.1889800853338,Glades,2
1074,33.040655971939,-84.6883116224581,Meriwether,22
1075,37.2780974624955,-105.428270135835,Costilla,27
1076,31.3909110937822,-97.7992044488788,Coryell,26
1077,41.3307464317463,-94.470941345748,Adair,54
1078,32.3469716245727,-84.7870495744755,Chattahoochee,22
1079,37.5815218799818,-119.905517278466,Mariposa,14
1080,39.1424974927606,-92.6962654618592,Howard,45
1081,44.9032990664151,-122.584593233747,Marion,17
1082,43.0154588184819,-87.5805583845375,Milwaukee,16
1083,44.6484656469915,-93.5359153624009,Scott,4
1084,39.641941081252,-83.0243916394108,Pickaway,25
1085,37.5502024256248,-77.9151855039549,Powhatan,52
1086,39.954136167672,-105.052665570158,Broomfield,27
1087,35.2172742258086,-87.3955852659875,Lawrence,30
1088,45.0073748365607,-85.1757942969531,Antrim,42
1089,34.6019853348315,-79.6786271848191,Marlboro,28
1090,47.2175509236999,-116.658825881366,Benewah,7
1091,41.7461932959687,-89.3003866923129,Lee,3
1092,40.3876548565373,-95.8498160468151,Nemaha,18
1093,34.8640126069959,-76.5324914184582,Carteret,9
1094,39.3790103811549,-96.3424427997816,Pottawatomie,47
1095,42.2484866910783,-84.4234374966232,Jackson,42
1096,29.8081814567365,-98.2782456438407,Comal,26
1097,41.3012406124732,-70.1281131699948,Nantucket,51
1098,33.214770995789,-81.0542337733475,Bamberg,28
1099,28.0847204009006,-96.9914387877034,Aransas,26
1100,31.2760599055455,-83.2296220184131,Berrien,22
1101,39.8537974892735,-87.4639735446106,Vermillion,48
1102,44.3356055629422,-84.6115962276519,Roscommon,42
1103,36.4913386738161,-81.127189655174,Alleghany,9
1104,40.6735903970373,-120.594332854582,Lassen,14
1105,41.0933644266683,-89.7974941086507,Stark,3
1106,34.9357048060771,-99.5608020958613,Greer,29
1107,35.8375699222607,-100.270473265944,Hemphill,26
1108,46.3267605320617,-116.750235352292,Nez Perce,7
1109,45.4299499278773,-100.031556838862,Walworth,50
1110,38.5064736540528,-122.330533191333,Napa,14
1111,34.2902378980719,-98.3722304564277,Cotton,29
1112,37.9616839073546,-90.8774245137612,Washington,45
1113,38.8843138081154,-77.1746385585962,Falls Church,52
1114,27.4775225326939,-82.3575396297875,Manatee,2
1115,39.9654219080992,-81.9443815748186,Muskingum,25
1116,38.7469030853843,-106.194066665314,Chaffee,27
1117,38.3266610688428,-103.784825666159,Crowley,27
1118,38.4729724615035,-105.439657067464,Fremont,27
1119,30.7685804713651,-89.5897829697611,Pearl River,44
1120,31.1720242753318,-88.9923282731282,Perry,44
1121,41.3942640238536,-99.726143816789,Custer,18
1122,30.4060342083021,-85.1972072476733,Calhoun,2
1123,38.9334560502058,-84.5333405987811,Kenton,34
1124,43.0600413524343,-92.3176637440178,Chickasaw,54
1125,41.8935286269971,-88.7703148406079,DeKalb,3
1126,43.08188607311,-93.7342722992533,Hancock,54
1127,46.8106804375105,-102.655128812948,Stark,33
1128,43.0103267241465,-76.5743582075339,Cayuga,38
1129,32.7359728479752,-99.3540670024547,Shackelford,26
1130,30.5795334832069,-95.1669012388246,San Jacinto,26
1131,42.4688224460774,-90.8825218509506,Dubuque,54
1132,37.7219828737574,-77.9163635026723,Goochland,52
1133,39.351433752947,-101.719980716246,Sherman,47
1134,46.7140164089497,-85.5641194807565,Luce,42
1135,36.2648988566268,-76.2491346804154,Pasquotank,9
1136,36.5782976266041,-105.630966490064,Taos,13
1137,33.7955389565656,-90.8804009092027,Bolivar,44
1138,38.0423815735858,-116.471931331269,Nye,39
1139,36.4411652695409,-82.9446824213561,Hawkins,30
1140,46.1126061027243,-103.520671226502,Bowman,33
1141,39.9253436214039,-78.1126836625738,Fulton,19
1142,30.2067716715095,-92.0638799611437,Lafayette,21
1143,33.2334608158329,-98.1724579963859,Jack,26
1144,40.7746843379769,-82.5364843948083,Richland,25
1145,39.9878940522645,-91.1884888559599,Adams,3
1146,40.1376743637745,-83.7694969512167,Champaign,25
1147,43.361216627423,-72.2224044107732,Sullivan,8
1148,40.7472260673976,-87.8243044108216,Iroquois,3
1149,41.6864421937267,-92.5314683985785,Poweshiek,54
1150,40.8288673848488,-81.888031346432,Wayne,25
1151,33.413943001274,-84.4941910556301,Fayette,22
1152,33.270425927001,-83.0006869330768,Hancock,22
1153,29.9446888667482,-98.7115551921945,Kendall,26
1154,42.2765197666757,-74.1227065257825,Greene,38
1155,38.2462358503571,-78.013491750982,Orange,52
1156,34.1152946950573,-94.7713323415602,McCurtain,29
1157,31.4574378521142,-83.5265943016191,Tift,22
1158,40.9097216199931,-96.1408662991417,Cass,18
1159,44.3695854284741,-97.49147605636,Kingsbury,50
1160,42.9723307194618,-105.50706266368,Converse,31
1161,43.4197021239171,-74.9624980437951,Herkimer,38
1162,46.4573584657428,-99.4774685464581,Logan,33
1163,46.4955176245837,-89.795546966344,Gogebic,42
1164,46.9346483696736,-95.6739235348032,Becker,4
1165,34.3669619330958,-86.3066369652671,Marshall,23
1166,36.287873892947,-83.837513925373,Union,30
1167,39.4147219201342,-78.9437462393195,Mineral,1
1168,46.7007114506608,-90.5645081162156,Ashland,16
1169,40.5971769738698,-88.2232587061498,Ford,3
1170,46.2850242392627,-100.238780596609,Emmons,33
1171,40.7637665892471,-122.040521549178,Shasta,14
1172,29.8093893210434,-92.3042829446269,Vermilion,21
1173,36.3414837929215,-91.0277174476056,Randolph,43
1174,45.7055933879046,-89.5217123737997,Oneida,16
1175,32.7325534616034,-91.2350651216515,East Carroll,21
1176,30.8450707961243,-91.0455350782647,East Feliciana,21
1177,29.9047257307798,-89.3041273654265,St. Bernard,21
1178,29.2778616080606,-96.2221042540049,Wharton,26
1179,55.3956898432333,-132.845862574042,Prince of Wales-Hyder,40
1180,56.6848228311963,-133.519960576533,Petersburg,40
1181,34.0724245522186,-101.303234517034,Floyd,26
1182,56.2916779961094,-132.127680830403,Wrangell,40
1183,37.7201840505519,-84.2779973956466,Madison,34
1184,35.6872377975484,-83.9255310128261,Blount,30
1185,45.5404913434283,-111.170348492298,Gallatin,46
1186,34.3323522783027,-79.9576940568035,Darlington,28
1187,31.126122547372,-87.1616198293671,Escambia,23
1188,33.7942333520883,-85.2110262321997,Haralson,22
1189,37.8857349512115,-95.3013889271445,Allen,47
1190,39.7694638850711,-88.2173550319619,Douglas,3
1191,38.2976519591583,-78.466876873798,Greene,52
1192,13.4427595479348,144.769451697259,Guam,36
1193,44.1131233622876,-89.2428830577723,Waushara,16
1194,36.0948747389786,-91.9134172383879,Izard,43
1195,36.2397743969769,-121.308901558271,Monterey,14
1196,32.7390140778434,-108.382246280903,Grant,13
1197,38.2145294949107,-92.4284077642249,Miller,45
1198,36.2062122002975,-81.1629215908718,Wilkes,9
1199,58.4457105244437,-134.234238646429,Juneau,40
1200,39.3805039599734,-94.7735900278607,Platte,45
1201,39.6598589425885,-94.8061559091982,Buchanan,45
1202,34.8100762553298,-86.9813696723848,Limestone,23
1203,39.9310397468949,-85.3964353758968,Henry,48
1204,41.1868968807077,-97.5684211265355,Polk,18
1205,41.5939001298264,-83.0199692492507,Ottawa,25
1206,47.3264761969135,-96.4552777566565,Norman,4
1207,41.6850925965974,-95.310211336345,Shelby,54
1208,39.5628558579494,-77.0225215045661,Carroll,5
1209,42.080186357547,-92.0656911534482,Benton,54
1210,37.8015772072426,-82.5132925162417,Martin,34
1211,45.502473183864,-92.90834340862,Chisago,4
1212,37.4192049891299,-83.6831118676576,Owsley,34
1213,41.7886677165519,-76.5154525368533,Bradford,19
1214,40.5218545273858,-80.5738921957035,Hancock,1
1215,38.5054141258765,-92.2816001801177,Cole,45
1216,41.9957776883357,-86.6854211620092,Berrien,42
1217,40.4169345093732,-77.9812075964701,Huntingdon,19
1218,42.7197222010732,-103.135438096145,Dawes,18
1219,36.6783260260119,-80.2843537014628,Patrick,52
1220,45.0275462731208,-84.1272082789448,Montmorency,42
1221,44.6817481518884,-84.1297359178761,Oscoda,42
1222,36.6061185330109,-104.646862897262,Colfax,13
1223,38.4703054344055,-89.9284101426076,St. Clair,3
1224,38.3521748717687,-89.4104538589625,Washington,3
1225,40.00655527989,-78.4903171097156,Bedford,19
1226,34.860765265708,-94.063254716886,Scott,43
1227,37.1913273478025,-95.2975761447921,Labette,47
1228,40.9912655705983,-80.3341943651216,Lawrence,19
1229,40.2938387214727,-81.0911354037094,Harrison,25
1230,35.92102318689,-81.1770156091775,Alexander,9
1231,39.0851270544604,-74.8499819876693,Cape May,15
1232,42.9193245573339,-72.2511777132501,Cheshire,8
1233,48.3581259651075,-96.3684743757007,Marshall,4
1234,37.7066014228574,-77.0883853978498,King William,52
1235,37.6846796382035,-104.960584532642,Huerfano,27
1236,28.9057389685178,-97.8594018316386,Karnes,26
1237,35.4217526629281,-88.6134611454407,Chester,30
1238,39.6441420110528,-90.4746958300933,Scott,3
1239,39.0738050347878,-113.100463277544,Millard,24
1240,41.0893195584535,-111.573116383889,Morgan,24
1241,32.5993024368165,-96.2877967879915,Kaufman,26
1242,33.2153571013704,-109.240097458721,Greenlee,55
1243,33.3488342129927,-112.491233110035,Maricopa,55
1244,44.3349445130902,-84.12641381254,Ogemaw,42
1245,36.3592114942164,-85.673150781191,Jackson,30
1246,38.7123603841235,-88.0851012828063,Richland,3
1247,33.9808673944814,-86.5673709596688,Blount,23
1248,48.5616888724094,-111.024607141438,Liberty,46
1249,27.6813329849105,-98.508905969632,Duval,26
1250,39.5276701841743,-91.5220242275268,Ralls,45
1251,32.379013852893,-97.3663331092619,Johnson,26
1252,31.6262755459351,-84.9801029481205,Clay,22
1253,44.4912474442795,-119.007382966888,Grant,17
1254,43.1850141937522,-124.093328355272,Coos,17
1255,33.1755486936463,-95.2184193829075,Franklin,26
1256,43.56097534565,-73.8460058530166,Warren,38
1257,38.4136923843662,-78.2792401095377,Madison,52
1258,34.373719957843,-96.0378259222557,Atoka,29
1259,40.0273969073166,-89.8021701974652,Menard,3
1260,34.2378550375613,-84.8404989367732,Bartow,22
1261,28.7614709548154,-81.7112987975056,Lake,2
1262,35.6466648692039,-95.9643081693332,Okmulgee,29
1263,47.5754123091263,-100.345659116019,Sheridan,33
1264,41.0469632757061,-86.2635836341801,Fulton,48
1265,38.8837629807739,-94.8222555400524,Johnson,47
1266,38.5347119998296,-76.5305644680776,Calvert,5
1267,45.8991791847046,-91.7912346262987,Washburn,16
1268,47.7765540053586,-123.574309753058,Jefferson,20
1269,18.3762890232951,-67.1867288461223,Aguada,49
1270,43.9868496610331,-91.7791294264267,Winona,4
1271,32.3572296096597,-90.8520112032028,Warren,44
1272,39.983487944503,-94.8020459966521,Andrew,45
1273,38.9414910450802,-91.4702088525733,Montgomery,45
1274,37.1693060674098,-94.8462689798761,Cherokee,47
1275,36.2575037520585,-77.6518815823354,Halifax,9
1276,35.6885454577204,-106.865837040043,Sandoval,13
1277,37.1597114126151,-83.7146814936231,Clay,34
1278,41.2340543634979,-77.6381058354161,Clinton,19
1279,44.4886790782135,-122.534317372237,Linn,17
1280,42.6604993652879,-90.1317220161572,Lafayette,16
1281,36.7152362977223,-95.90436995156,Washington,29
1282,39.4692968512651,-79.6681619798185,Preston,1
1283,32.1547500102879,-86.6501077050289,Lowndes,23
1284,32.4034427883739,-82.0736728025389,Candler,22
1285,14.1515429647706,145.215166139294,Rota,35
1286,44.4704269556489,-88.9648188366135,Waupaca,16
1287,29.9826329658674,-100.304741689784,Edwards,26
1288,42.7933932957303,-120.387470718625,Lake,17
1289,36.649321886598,-92.4446635614497,Ozark,45
1290,30.0108050853179,-95.9876533442209,Waller,26
1291,31.5708366092972,-87.3654308931642,Monroe,23
1292,44.7277930581346,-71.736051837174,Essex,10
1293,36.9462101396829,-78.240565210936,Lunenburg,52
1294,47.4541849199317,-97.1615805187687,Traill,33
1295,34.3168890150621,-83.8196810820863,Hall,22
1296,32.4038814678955,-82.5672808899766,Treutlen,22
1297,31.5291972799925,-84.6245076911776,Calhoun,22
1298,46.0528871862654,-89.5147670174097,Vilas,16
1299,47.9737814973447,-94.9376528450264,Beltrami,4
1300,18.097304649342,-66.3601699122084,Coamo,49
1301,17.9463618937705,-66.9219381666191,Guánica,49
1302,38.4226081965119,-76.0833251289429,Dorchester,5
1303,41.048653465582,-76.4051500820449,Columbia,19
1304,39.9167775513415,-83.7838965197716,Clark,25
1305,28.7425899724794,-100.314513970621,Maverick,26
1306,32.0973790210905,-111.789949310007,Pima,55
1307,34.9125736457582,-107.999714182626,Cibola,13
1308,39.8776928308513,-74.6682033921307,Burlington,15
1309,43.5800916080364,-73.0366089720456,Rutland,10
1310,31.322832730882,-84.9036434229133,Early,22
1311,42.0789478338666,-91.5989646054795,Linn,54
1312,40.6506935579428,-123.112627733873,Trinity,14
1313,32.50996149539,-84.8770410640409,Muscogee,22
1314,33.9504748158935,-90.1732642448261,Tallahatchie,44
1315,39.5317400466683,-95.3134447712091,Atchison,47
1316,18.2686766880472,-66.8667797594262,Lares,49
1317,32.3050344124883,-102.637807356973,Andrews,26
1318,40.0534453878648,-84.2288512016083,Miami,25
1319,35.4012727986009,-101.894003528424,Potter,26
1320,35.1674860603789,-96.6155178784507,Seminole,29
1321,33.544369426897,-81.6347435551253,Aiken,28
1322,36.2927206849982,-82.1274279151941,Carter,30
1323,44.4134915896617,-95.8389749028794,Lyon,4
1324,41.388774736238,-70.6987715785787,Dukes,51
1325,48.2345810216373,-100.636282469791,McHenry,33
1326,42.2092885595983,-97.1192602693758,Wayne,18
1327,46.4569138691603,-98.535459603211,LaMoure,33
1328,43.7228694714044,-113.172016691467,Butte,7
1329,44.6895989316667,-71.3054171978433,Coos,8
1330,46.98014340943,-99.780091521016,Kidder,33
1331,27.426710826355,-97.6683877738599,Kleberg,26
1332,41.5088386265138,-87.0733185014654,Porter,48
1333,32.4002323468956,-89.1188085204989,Newton,44
1334,34.9916410645201,-78.371510888433,Sampson,9
1335,35.2846174075156,-86.3587711192926,Moore,30
1336,27.9026761739994,-82.7395539431554,Pinellas,2
1337,18.2017062331786,-66.3098725651356,Barranquitas,49
1338,38.081573647721,-88.5391056785915,Hamilton,3
1339,34.9473746836519,-92.9314711239951,Perry,43
1340,39.7858693721048,-101.73110427378,Cheyenne,47
1341,38.8613737758351,-107.862876866187,Delta,27
1342,40.7394701913423,-93.3273639200877,Wayne,54
1343,32.7407250802422,-102.63517680326,Gaines,26
1344,34.1365497209186,-87.8871384354985,Marion,23
1345,36.2310982838573,-81.6963716971713,Watauga,9
1346,37.2784075872798,-79.9580841806531,Roanoke,52
1347,32.3060301367795,-101.951216779026,Martin,26
1348,33.4457646354584,-94.4233181495168,Bowie,26
1349,41.2698841979791,-111.913270641434,Weber,24
1350,39.4970238197123,-82.4792535128465,Hocking,25
1351,-14.2084357945329,-169.536734918784,Manu'a,41
1352,39.433623839821,-123.43155392701,Mendocino,14
1353,36.6777521092792,-76.3024325872951,Chesapeake,52
1354,14.9465294269994,145.604845481521,Tinian,35
1355,18.0799558901785,-66.8587373162588,Yauco,49
1356,41.6595005426945,-108.879419506208,Sweetwater,31
1357,33.1798757292228,-101.298424110997,Garza,26
1358,39.0075031036356,-78.8579223797814,Hardy,1
1359,18.179732648311,-66.7539565774743,Adjuntas,49
1360,43.3656514792781,-87.5944671859867,Ozaukee,16
1361,36.5129153991834,-82.3041428693879,Sullivan,30
1362,34.4835676167325,-82.0059339786564,Laurens,28
1363,44.5886029195296,-104.56993968959,Crook,31
1364,43.7197084503852,-87.63477220381,Sheboygan,16
1365,42.1351092616192,-72.6316195713133,Hampden,51
1366,29.8371171942097,-97.6199995603041,Caldwell,26
1367,39.4802974365683,-97.6492819157673,Cloud,47
1368,36.5111268134513,-117.410789702131,Inyo,14
1369,32.9362268959039,-86.2476592165784,Coosa,23
1370,43.3779847629898,-95.1508300623362,Dickinson,54
1371,36.8569741773647,-83.2179518865227,Harlan,34
1372,39.0023580961998,-96.7525380199171,Geary,47
1373,40.4162954723524,-75.9259977263014,Berks,19
1374,37.0116124314113,-78.6616394695269,Charlotte,52
1375,36.2933016097985,-82.4974314098305,Washington,30
1376,34.2898117976583,-81.600119855954,Newberry,28
1377,36.9067291149541,-76.7091264936579,Isle of Wight,52
1378,44.7260602997834,-120.027463011561,Wheeler,17
1379,36.7164171013972,-90.4065563983687,Butler,45
1380,30.25849887413,-91.3493631916653,Iberville,21
1381,32.8797230715897,-90.8132149183814,Sharkey,44
1382,38.7385468274258,-77.809274606005,Fauquier,52
1383,37.1229346311068,-80.5582449765944,Radford,52
1384,38.912241402003,-119.616372022071,Douglas,39
1385,29.811683584091,-84.8004566005834,Franklin,2
1386,39.0363290478614,-86.9620466442066,Greene,48
1387,39.6199484527429,-85.4657611699974,Rush,48
1388,43.36847116686,-88.2307813183958,Washington,16
1389,37.6583225696119,-92.5903486295128,Laclede,45
1390,41.3021808871711,-80.2577024720612,Mercer,19
1391,35.8307884969928,-90.6328500403402,Craighead,43
1392,39.1368390963464,-93.2018512328312,Saline,45
1393,38.0874782806518,-88.1795667977958,White,3
1394,40.1746285908062,-88.9040902131626,De Witt,3
1395,39.4421607507747,-114.901587798859,White Pine,39
1396,44.4098501973529,-92.7225909959998,Goodhue,4
1397,35.4867258028914,-83.4927439974425,Swain,9
1398,28.3067410657473,-82.438867332531,Pasco,2
1399,28.7048225314652,-82.0809953624367,Sumter,2
1400,40.7321724871656,-73.5854458409908,Nassau,38
1401,47.4561539926618,-97.7246683611834,Steele,33
2344,40.4379183727029,-85.0056353215708,Jay,48
1402,38.0251431238124,-87.5857830847872,Vanderburgh,48
1403,38.4111443872201,-91.0749938560447,Franklin,45
1404,36.0766082832704,-81.9224729072053,Avery,9
1405,39.2111317400094,-81.5149653245585,Wood,1
1406,46.6354371388511,-91.1806842473596,Bayfield,16
1407,36.501104361668,-87.8384575963628,Stewart,30
1408,44.4760430989113,-89.5014244632441,Portage,16
1409,33.9023279986069,-81.2721948259705,Lexington,28
1410,38.9941571662787,-76.5675970731626,Anne Arundel,5
1411,43.753589750373,-88.4882624694105,Fond du Lac,16
1412,38.494737368813,-80.4218730546672,Webster,1
1413,44.5059909302987,-87.3072591725948,Kewaunee,16
1414,34.530105628584,-102.784526922274,Parmer,26
1415,36.7669368529355,-98.8651186297592,Woods,29
1416,38.1178916992729,-83.0976163993443,Elliott,34
1417,42.3706738938573,-73.2064038783274,Berkshire,51
1418,39.5150814099251,-92.962623662742,Chariton,45
1419,39.9798411218209,-108.217208332752,Rio Blanco,27
1420,40.262744395101,-103.809822233112,Morgan,27
1421,43.1934091916866,-117.623069158946,Malheur,17
1422,40.4400422364164,-74.4088906178218,Middlesex,15
1423,38.9147788420038,-98.7623510212332,Russell,47
1424,41.2044693559062,-89.2858327623513,Putnam,3
1425,44.2944278520053,-101.539985772876,Haakon,50
1426,36.5320343704375,-86.0072701398971,Macon,30
1427,35.5381094736119,-92.0267364247484,Cleburne,43
1428,31.8027150524302,-85.9409207436616,Pike,23
1429,44.889646778272,-116.453867490261,Adams,7
1430,41.7570921127743,-71.0885194799165,Bristol,51
1431,40.7058005724105,-76.2159548322898,Schuylkill,19
1432,47.5875312798664,-99.6609525722454,Wells,33
1433,35.3341116509601,-81.5556097323403,Cleveland,9
1434,34.3176345005225,-92.9460057644693,Hot Spring,43
1435,39.4722211065343,-77.3979929873745,Frederick,5
1436,40.1580276198084,-90.6150665787685,Schuyler,3
1437,37.9389903537209,-118.886709277452,Mono,14
1438,38.027601089325,-119.954752996024,Tuolumne,14
1439,32.3526797532706,-106.83280048206,Doña Ana,13
1440,31.9229320232401,-83.7681039829048,Crisp,22
1441,33.2142872104485,-93.2273086789836,Columbia,43
1442,47.4572886229307,-98.2370430999893,Griggs,33
1443,38.2669191202957,-121.940006890726,Solano,14
1444,42.8447493205956,-91.3414327801143,Clayton,54
1445,33.2166030333105,-94.9656721800204,Titus,26
1446,39.3170653015171,-78.6141684572864,Hampshire,1
1447,35.3107205709339,-79.4813081973763,Moore,9
1448,38.4789639690844,-98.7564642904822,Barton,47
1449,46.4472201811081,-103.459904168472,Slope,33
1450,32.417789801568,-91.7634869089389,Richland,21
1451,41.9143570691174,-98.9913852866978,Garfield,18
1452,30.1290721427767,-91.608295905028,St. Martin,21
1453,32.5910140725617,-88.1987913440433,Sumter,23
1454,34.1492249817784,-87.3736835324046,Winston,23
1455,28.7169803322924,-81.2363035706885,Seminole,2
1456,31.1888693918568,-89.2578597839113,Forrest,44
1457,42.5970987469523,-84.3735373985124,Ingham,42
1458,39.0415144392851,-95.7565333550389,Shawnee,47
1459,43.674822310211,-97.7873426343093,Hanson,50
1460,47.5095255037881,-93.632004021404,Itasca,4
1461,38.9880685419752,-103.513965349648,Lincoln,27
1462,42.9127745897274,-75.6696659064241,Madison,38
1463,43.31370318454,-73.430758899051,Washington,38
1464,39.4899701985718,-86.1016367382726,Johnson,48
1465,33.1738126661638,-102.335196541525,Terry,26
1466,35.8579441995033,-103.819931563079,Harding,13
1467,33.3800574110614,-86.1659069244883,Talladega,23
1468,45.2623625569846,-89.0719116451044,Langlade,16
1469,33.9746151013001,-99.7779848917583,Foard,26
1470,42.7354936356633,-95.1511489720803,Buena Vista,54
1471,41.0334522619506,-95.6213267312192,Mills,54
1472,29.8317429539561,-99.8221669203055,Real,26
1473,40.2783936588773,-83.0048853096658,Delaware,25
1474,36.130485291893,-80.2563646027366,Forsyth,9
1475,39.1511466327037,-119.747422318391,Carson City,39
1476,41.6848862082044,-94.0397373965809,Dallas,54
1477,35.4035078725923,-101.354183024887,Carson,26
1478,32.0399692321264,-84.1970413835544,Sumter,22
1479,37.1126355154112,-90.4614294620061,Wayne,45
1480,34.5190912525067,-82.6378849573261,Anderson,28
1481,41.6945892673019,-106.930610171631,Carbon,31
1482,45.9023551428263,-112.656716280191,Silver Bow,46
1483,42.3517466903343,-89.6623597852618,Stephenson,3
1484,43.0901472802698,-83.2217838856812,Lapeer,42
1485,32.8226934392629,-92.9957332203768,Claiborne,21
1486,34.0282115601679,-89.7076318401553,Yalobusha,44
1487,18.1720935673459,-66.9422834482356,Maricao,49
1488,44.6846612418015,-85.0902290238212,Kalkaska,42
1489,18.4802901648361,-67.1447197804855,Aguadilla,49
1490,30.7289364159265,-92.4059041844145,Evangeline,21
1491,35.2068682630768,-88.9930848744109,Hardeman,30
1492,31.8795651814116,-109.751140653113,Cochise,55
1493,31.9141580984792,-108.714818784753,Hidalgo,13
1494,48.8148931842385,-103.487352373655,Divide,33
1495,34.8414347531589,-116.178455766039,San Bernardino,14
1496,37.3384137658008,-108.596712968885,Montezuma,27
1497,32.0414016698533,-88.6894044468162,Clarke,44
1498,41.3344514580577,-93.0994366545492,Marion,54
1499,41.2953515411604,-96.1544796238727,Douglas,18
1500,38.8530952192283,-77.2997963491999,Fairfax,52
1501,34.7441182718713,-99.8462776657135,Harmon,29
1502,37.7238515611876,-93.8566134809161,Cedar,45
1503,33.9511682971658,-83.3673319702271,Clarke,22
1504,44.7667021199662,-115.566128149412,Valley,7
1505,33.6061291426289,-99.7414270416929,Knox,26
1506,33.5933551675735,-92.8819341252118,Ouachita,43
1507,40.1332296866358,-84.6193132912988,Darke,25
1508,36.8180064140458,-97.143922812605,Kay,29
1509,45.1566156962978,-100.871863934117,Dewey,50
1510,45.4564519243497,-123.758771178015,Tillamook,17
1511,33.3534617144857,-84.7633607779118,Coweta,22
1512,31.9131719628866,-89.9194880959631,Simpson,44
1513,30.7899516454987,-89.1177101994844,Stone,44
1539,40.1576395563655,-85.0113104068023,Randolph,48
1573,37.8720309924658,-84.5809313627852,Jessamine,34
1574,36.7121802847522,-85.7165196005215,Monroe,34
1575,34.916367547005,-98.9808702907182,Kiowa,29
1576,44.0220442683433,-97.1293763704564,Lake,50
1577,36.3933497158814,-79.3335936631919,Caswell,9
1578,29.9998023735637,-104.240521538885,Presidio,26
1579,39.6914800303726,-83.8898851892715,Greene,25
1580,26.4770120822871,-97.5918210739384,Willacy,26
1581,18.349636755572,-66.1683365449819,Bayamón,49
1582,35.8693669784242,-106.30728843391,Los Alamos,13
1583,60.1153044987397,-151.7043047477,Kenai Peninsula,40
1584,30.6609739152088,-87.7498447099729,Baldwin,23
1585,40.7431634777571,-92.8686104407724,Appanoose,54
1618,46.4568459641086,-120.738703169757,Yakima,20
1619,35.9790673608043,-94.2155789900668,Washington,43
1620,32.2118937818645,-95.8535554532307,Henderson,26
1621,44.7267696282478,-91.2859960733177,Eau Claire,16
1622,35.3711477464944,-85.4105869085492,Sequatchie,30
1623,30.7390459506591,-95.5722828653493,Walker,26
1624,35.8387352779872,-111.770505218975,Coconino,55
1625,37.2372753418964,-97.4765502071326,Sumner,47
1626,43.6446171374493,-86.5817720900042,Oceana,42
1530,37.7315905005849,-79.3565423775743,Buena Vista,52
1553,37.2850728672593,-111.887850095362,Kane,24
1554,39.1135952899584,-79.5649741717199,Tucker,1
1555,18.0027266290937,-66.607258818569,Ponce,49
1556,43.2394623012687,-90.9310479026668,Crawford,16
1557,34.7794147060876,-85.9993006849815,Jackson,23
1558,41.3352034836437,-92.6409093982262,Mahaska,54
1559,38.8846595988842,-95.292606247743,Douglas,47
1560,37.7317715969675,-87.087226636599,Daviess,34
1612,37.8315338787456,-81.9353404812397,Logan,1
1613,39.3709375922799,-81.1606296694957,Pleasants,1
1614,37.3140323819836,-80.7037383939336,Giles,52
1615,38.0287776642567,-81.0811921668594,Fayette,1
1616,48.0460157795209,-121.722182553677,Snohomish,20
1617,32.4714875562666,-104.304310700035,Eddy,13
1531,41.4461591243193,-76.5121412779189,Sullivan,19
1532,36.6829683264351,-76.9385172064299,Franklin,52
1533,42.9311219743407,-82.6643677238424,St. Clair,42
1534,42.1581860579762,-96.5440972076913,Thurston,18
1535,44.6057591758057,-72.6414522291672,Lamoille,10
1536,36.9919381849139,-79.8810407297499,Franklin,52
1537,35.8752513869968,-98.4334573151032,Blaine,29
1538,47.1241713121315,-120.679722831933,Kittitas,20
1540,38.436187548001,-78.8734791237235,Harrisonburg,52
1541,37.7302471406781,-88.9299370409738,Williamson,3
1542,48.2951604140389,-114.049808327515,Flathead,46
1543,18.0244444512817,-66.7279463730187,Peñuelas,49
1544,37.1923191176656,-101.312045431817,Stevens,47
1545,38.0423254042082,-84.4587259569293,Fayette,34
1546,37.8415087290029,-86.7779252031911,Hancock,34
1547,45.5897229770699,-98.3516118040809,Brown,50
1548,39.1329338766274,-80.0030288844627,Barbour,1
1549,35.2399157632005,-87.7880119997485,Wayne,30
1550,42.2197672444919,-103.08568192748,Box Butte,18
1551,40.85198453408,-76.70932092313,Northumberland,19
1552,28.7963515001055,-96.9715252798456,Victoria,26
1561,37.337848519763,-79.5202539769571,Bedford,52
1562,35.9026782950611,-96.3709415237085,Creek,29
1563,30.7712321566704,-94.3765939310077,Tyler,26
1564,35.6959814614976,-85.4526142085852,Van Buren,30
1565,35.2067212817587,-96.9483009381534,Pottawatomie,29
1566,41.855008559352,-72.3364895086916,Tolland,11
1567,34.0072414033129,-106.930329188192,Socorro,13
1568,31.2971082778526,-82.8799930637492,Atkinson,22
1569,30.3354408639593,-81.648008824519,Duval,2
1570,31.253271652208,-96.935847105664,Falls,26
1571,35.0025970863184,-93.4112491261949,Yell,43
1572,37.1912803816991,-99.2718714846554,Comanche,47
1586,17.7356133752979,-64.7479357362242,St. Croix,56
1587,37.5051428983178,-76.99712791393,New Kent,52
1588,32.6994862794106,-84.5330103520057,Talbot,22
1589,43.7846914557151,-75.4487945230397,Lewis,38
1590,38.4625320008717,-81.0750874773999,Clay,1
1591,38.7858226921598,-85.4385729119302,Jefferson,48
1592,37.3149415554336,-79.5242151782553,Bedford,52
1593,36.009952325859,-104.944583864342,Mora,13
1594,41.7067847395087,-98.0672555223229,Boone,18
1595,36.6867160991131,-91.4032947515192,Oregon,45
1596,36.2859716621943,-87.717035632689,Houston,30
1597,41.5183294796794,-76.0165514289609,Wyoming,19
1598,35.2391510759559,-77.6412726845372,Lenoir,9
1599,39.4306386044271,-87.3899644467325,Vigo,48
1600,41.597384481428,-85.8587552791218,Elkhart,48
1601,36.6565899741135,-81.2250500454349,Grayson,52
1602,30.5988511110415,-92.0058568444369,St. Landry,21
1603,35.2021521205839,-87.0347786005985,Giles,30
1604,41.6841862318755,-83.4682644128427,Lucas,25
1605,35.7639015030761,-90.0541659748241,Mississippi,43
1606,18.3392710481229,-67.2646843216797,Rincón,49
1607,38.3189059629705,-85.9068720389192,Floyd,48
1608,37.1913958125489,-101.799252076827,Morton,47
1609,38.6488123479458,-84.6246143540277,Grant,34
1610,37.3664564575167,-85.3278385562389,Taylor,34
1611,35.3501603107856,-83.8335578984703,Graham,9
1627,45.9452169910029,-93.293425185846,Kanabec,4
1628,41.8963811412534,-80.759010792836,Ashtabula,25
1629,38.5972506323831,-119.820653032396,Alpine,14
1630,29.3799671415861,-94.8626719370866,Galveston,26
1631,32.1005542096767,-85.7156971915339,Bullock,23
1632,40.8915571986122,-88.5577173672173,Livingston,3
1633,39.7415702726042,-84.6480194743292,Preble,25
1634,39.0196721629814,-82.6183829533153,Jackson,25
1635,29.8572777958578,-95.3923397491123,Harris,26
1636,42.4855453568756,-71.3918373518152,Middlesex,51
1637,18.4557008498757,-66.3966030198213,Vega Baja,49
1638,32.7425261005742,-101.947684439195,Dawson,26
1639,42.8528477766962,-77.2998210500601,Ontario,38
1650,61.4163634710982,-144.760839496605,Valdez-Cordova,40
1651,32.5349206899846,-86.6427572479947,Autauga,23
1652,38.5635833475334,-94.8380569879752,Miami,47
1653,32.1721829645886,-83.1683989298131,Dodge,22
1654,42.5950073308899,-76.0702669227589,Cortland,38
1655,30.9224899301987,-81.6363891356154,Camden,22
1656,42.2532261727235,-83.8387711056113,Washtenaw,42
1657,41.6426062697597,-85.4264979080496,LaGrange,48
1658,30.7810605189622,-102.723570335456,Pecos,26
1659,32.5687781314972,-83.8268781976373,Peach,22
1660,34.6463601375923,-83.7471150271864,White,22
1661,33.0548441687508,-82.41815144875,Jefferson,22
1662,44.9985143618466,-88.2205612197595,Oconto,16
1663,31.6159787925615,-94.6158669241523,Nacogdoches,26
1664,41.3964886868305,-71.6196592880491,Washington,6
1665,48.5488508011715,-119.740786459255,Okanogan,20
1666,47.6206391604351,-117.404009508474,Spokane,20
1667,45.6672619935521,-88.7703803366205,Forest,16
1668,45.8799711995924,-91.1446720332392,Sawyer,16
1669,40.7309440213293,-74.0759358815643,Hudson,15
1670,40.8138878740925,-81.3656363525621,Stark,25
1671,29.5830511336235,-97.9485847792161,Guadalupe,26
1672,48.1629149349353,-122.575258437929,Island,20
1673,39.3076158152089,-77.8627358042763,Jefferson,1
1674,38.7016657282523,-77.4776614713191,Prince William,52
1675,44.4852469436106,-69.1218807819698,Waldo,37
1676,39.2507169243125,-76.9311943581614,Howard,5
1677,40.6675751160582,-111.924025731797,Salt Lake,24
1678,41.8064217576845,-72.732843890686,Hartford,11
1679,41.8300294291598,-71.9874876650883,Windham,11
1680,25.0467803296474,-81.1856924240817,Monroe,2
1640,33.6102055427331,-101.82054574996,Lubbock,26
1641,45.1231152432725,-94.5273094669106,Meeker,4
1642,39.3497160899813,-99.8832526298932,Graham,47
1643,41.5680844602276,-101.060530429661,McPherson,18
1644,40.1758304937353,-100.476864851157,Red Willow,18
1645,42.4212882814827,-99.4499298095068,Rock,18
1646,36.0408188827908,-87.7756333585787,Humphreys,30
1647,40.2396484219544,-89.9167838015533,Mason,3
1648,36.9171324803152,-81.0785900373993,Wythe,52
1649,32.9695357357694,-82.7958991714121,Washington,22
1681,40.440959876623,-81.4737695770406,Tuscarawas,25
1682,41.8877664616896,-84.592928504769,Hillsdale,42
1683,35.2903805847555,-98.9922309797044,Washita,29
1684,36.0613200049727,-79.1205594713563,Orange,9
1685,41.0418321038546,-86.6987792587833,Pulaski,48
1686,34.5879714876231,-99.4147574113077,Jackson,29
1687,47.6748260183076,-115.133286894627,Sanders,46
1688,31.8694626972505,-101.520802201276,Glasscock,26
1689,35.5123505683792,-93.8906194569991,Franklin,43
1690,36.3116436730654,-98.5359529767431,Major,29
1691,36.4968580775095,-87.3828868689622,Montgomery,30
1692,48.5322993340792,-117.273972617069,Pend Oreille,20
1693,47.6069573726726,-101.321827430542,McLean,33
1694,45.519107285481,-121.651105401322,Hood River,17
1695,42.7331188965229,-93.7351464873541,Wright,54
1696,31.7924089342635,-94.1450174768663,Shelby,26
1699,40.5623317978994,-74.1382729813055,Richmond,38
1700,48.343677156309,-103.480207563007,Williams,33
1701,46.9329719341453,-97.2480438373442,Cass,33
1702,37.5182024447546,-88.2668507944262,Hardin,3
1738,40.4791367066569,-94.422102257103,Worth,45
1785,18.3779438211354,-67.0807617388316,Moca,49
1697,34.530384990587,-101.735026845815,Swisher,26
1698,38.4603650752301,-91.8618379452853,Osage,45
1703,18.32758198695,-64.7377154030228,St. John,56
1704,44.2483872589042,-105.548309355402,Campbell,31
1705,33.5908249584368,-83.4923822828545,Morgan,22
1706,35.295726155471,-90.7712268398924,Cross,43
1707,34.428291249043,-90.8480221028011,Phillips,43
1708,30.0262962009998,-90.796316007151,St. James,21
1709,39.2690080655736,-121.351262464544,Yuba,14
1717,37.6917036301029,-99.8879423783711,Ford,47
1775,37.9550855783353,-103.071704573748,Bent,27
1786,37.9763769207337,-91.3039612291309,Crawford,45
1787,38.0586923114617,-79.7410892500044,Bath,52
1788,46.4087959023413,-95.7080028649159,Otter Tail,4
1789,29.3806620665636,-89.4819150666158,Plaquemines,21
1790,34.2254421341734,-89.0374096908168,Pontotoc,44
1791,32.8202181214595,-91.8017970498243,Morehouse,21
1792,37.9700758055581,-85.6958570411271,Bullitt,34
1793,32.3259745399407,-87.1064787773959,Dallas,23
1794,31.9479781136096,-98.5582572863125,Comanche,26
1795,48.5425261292861,-115.405194717393,Lincoln,46
1796,18.1479975346703,-65.976454298387,San Lorenzo,49
1797,18.3625468674458,-66.246423269106,Toa Alta,49
1798,46.9495997066399,-94.3253486956011,Cass,4
1799,37.1935963134263,-107.048329271337,Archuleta,27
1800,32.7803096974547,-90.396416116501,Yazoo,44
1801,44.4160896059307,-88.4649262754902,Outagamie,16
1802,41.2205905583425,-98.9762070095786,Sherman,18
1803,45.7711313931514,-100.051628553105,Campbell,50
1804,45.5803471888423,-103.495767040936,Harding,50
1805,42.5047730357366,-102.408963557508,Sheridan,18
1806,36.8532163812371,-88.9710587965388,Carlisle,34
1807,42.9622404458874,-106.798493804336,Natrona,31
1808,31.5515116699406,-83.8508756830315,Worth,22
1809,39.4815482832656,-86.4462122551038,Morgan,48
1710,31.8500454067094,-103.048169278556,Winkler,26
1711,43.6942092804901,-101.628131499134,Jackson,50
1712,38.7476407081212,-111.804638013419,Sevier,24
1713,37.3543503847163,-77.0591279007744,Charles City,52
1714,32.019610762553,-88.2632012669186,Choctaw,23
1715,38.6890898444227,-87.4180084564586,Knox,48
1716,40.8699361098574,-99.8195657058332,Dawson,18
1718,41.5689031801611,-101.695910707921,Arthur,18
1719,28.8678176239272,-99.1082668295441,Frio,26
1720,41.6715510924178,-91.58808491991,Johnson,54
1721,37.5584854086792,-95.306792312915,Neosho,47
1722,38.5456649233923,-82.9222883983594,Greenup,34
1723,38.2122719353355,-94.8429320255609,Linn,47
1724,37.854916175827,-111.443127383698,Garfield,24
1725,39.9838920245543,-116.268559599176,Eureka,39
1726,40.5247823605384,-101.061843924793,Hayes,18
1727,40.5938843191116,-102.35757960072,Phillips,27
1728,33.5580339986123,-92.5030440970688,Calhoun,43
1729,64.8085230176561,-146.562819285614,Fairbanks North Star,40
1730,37.7958979515471,-87.5731611234526,Henderson,34
1731,33.1235139599047,-90.0920503234622,Holmes,44
1732,33.424952965418,-88.8793049442023,Oktibbeha,44
1733,18.2683832040391,-65.5592543826967,Ceiba,49
1734,18.3043114093258,-66.3278998530478,Corozal,49
1735,47.2635725938994,-109.224328627094,Fergus,46
1736,39.5286031496668,-79.2738793378442,Garrett,5
1737,32.7134544862253,-93.3349832667877,Webster,21
1739,36.8596987790645,-86.878938244723,Logan,34
1740,43.6776294400141,-103.451536201715,Custer,50
1741,43.2976543182521,-71.6801908683444,Merrimack,8
1742,39.9199624531816,-76.7265112411509,York,19
1743,35.4022469415158,-81.920087172072,Rutherford,9
1744,44.4144802004202,-98.2781097806045,Beadle,50
1745,33.2642778106972,-86.660648117964,Shelby,23
1746,38.155497233585,-107.769316881678,Ouray,27
1747,34.574162286616,-103.346911019166,Curry,13
1748,44.6445878868962,-86.3006278845237,Benzie,42
1749,39.1962111693358,-86.227374798039,Brown,48
1750,38.4771815056614,-85.7072824798894,Clark,48
1751,37.624332922835,-84.8668115235068,Boyle,34
1752,37.6924815469196,-83.9643302572621,Estill,34
1753,34.9648838952911,-100.270065997721,Collingsworth,26
1754,29.6208209806597,-96.5262752808135,Colorado,26
1755,41.2850866156012,-88.4184953684039,Grundy,3
1756,38.7716260266069,-77.4447227738764,Manassas Park,52
1757,32.3968139806014,-81.7431818126252,Bulloch,22
1758,37.5571085340001,-82.7457041451928,Floyd,34
1759,46.3319853264192,-111.495467182104,Broadwater,46
1760,32.1170652499605,-82.7245932772521,Wheeler,22
1761,35.1172230781835,-77.0826341980408,Craven,9
1762,40.0944306461642,-95.2155121988438,Holt,45
1763,44.4125964084025,-96.2670873341437,Lincoln,4
1764,32.1567629611843,-81.8868846315065,Evans,22
1765,33.2159003244852,-97.65446005383,Wise,26
1766,60.8495318866038,-160.198638135417,Bethel,40
1767,32.0466488177385,-84.5510526405969,Webster,22
1768,33.0251331577516,-83.5605241523056,Jones,22
1769,33.961729074878,-84.0236240904838,Gwinnett,22
1770,45.4614188395926,-92.4413947115814,Polk,16
1771,42.6799877059975,-89.6022120075388,Green,16
1772,18.2149015386351,-66.4339958000769,Orocovis,49
1773,41.426661567386,-73.7495141493178,Putnam,38
1774,37.0760640843468,-76.5164573913793,Newport News,52
1776,36.277708110379,-100.273120533193,Lipscomb,26
1777,45.9437661115647,-123.088049033395,Columbia,17
1778,34.0243876042923,-79.7028213479705,Florence,28
1779,48.2013308083549,-102.355653129393,Mountrail,33
1780,37.2803607731924,-113.504943849458,Washington,24
1781,45.4234572734652,-107.48969591872,Big Horn,46
1782,41.4252272900969,-78.6490862616746,Elk,19
1783,42.4877139595062,-103.758878614445,Sioux,18
1784,31.6332182167011,-89.5526288200783,Covington,44
1810,32.3484295208945,-96.7944846334728,Ellis,26
1811,31.3587576012511,-82.2127427092456,Pierce,22
1812,41.6167180242459,-86.2898576939107,St. Joseph,48
1813,48.7675176505883,-97.5518316367313,Pembina,33
1814,43.1949202734252,-101.663968834373,Bennett,50
1815,31.108293701833,-93.1841467029501,Vernon,21
1816,45.4005123285195,-68.6494281281183,Penobscot,37
1817,38.7491001767559,-76.1786170544524,Talbot,5
1818,34.5539438543845,-83.2934331407113,Stephens,22
1819,33.743676105648,-115.993859265752,Riverside,14
1820,36.2871885964071,-92.3369714818907,Baxter,43
1821,33.0862870822469,-89.5815461829863,Attala,44
1822,42.0362415020111,-93.4650447631583,Story,54
1823,37.8552256272699,-94.849296845969,Bourbon,47
1824,37.512096976216,-78.244962429566,Cumberland,52
1825,33.9161721890635,-80.3823159254838,Sumter,28
1826,58.3042183335978,-156.524635517258,Lake and Peninsula,40
1827,37.6096118242693,-81.5491772373025,Wyoming,1
1828,35.3428487145976,-118.729900018249,Kern,14
1829,33.6391852879133,-97.2126219376565,Cooke,26
1830,33.4389914842281,-80.8002997289891,Orangeburg,28
1831,45.2115279118173,-90.501251556398,Taylor,16
1832,43.6714700501876,-92.7525135837513,Mower,4
1844,34.6503240402277,-89.9447819124005,Tate,44
1874,36.9217519103594,-77.2617946397246,Sussex,52
1875,44.0221218403014,-95.7632752908394,Murray,4
1876,41.8713565485704,-71.5785970731718,Providence,6
1877,37.8771286625293,-91.7923648176377,Phelps,45
1878,34.6182873834525,-88.5200953626076,Prentiss,44
1879,36.7580733057163,-84.1451777130544,Whitley,34
1880,41.2809264277028,-86.6476485576099,Starke,48
1881,30.6480415116447,-97.6007620155629,Williamson,26
1882,18.0007213259584,-65.9887495363188,Patillas,49
1883,43.3564123702607,-92.7890314522426,Mitchell,54
1884,32.5897624904683,-82.3017080681478,Emanuel,22
1885,31.6661684568962,-91.8470716056684,Catahoula,21
1886,40.918182917138,-75.7088216053641,Carbon,19
1887,40.1315428728206,-96.2370551794863,Pawnee,18
1888,36.1108223031612,-82.4322372235469,Unicoi,30
1889,34.931261543699,-81.990678457032,Spartanburg,28
1890,44.8982857136939,-89.759059124938,Marathon,16
1891,41.1458295820372,-115.357761943077,Elko,39
1892,38.6998726835964,-80.7192881468464,Braxton,1
1893,44.3383550645405,-85.5784200198823,Wexford,42
1894,33.6041445561353,-102.828451709686,Cochran,26
1833,39.1733867868497,-78.1745240006004,Winchester,52
1834,34.9362756051281,-77.9329360509515,Duplin,9
1835,35.5560536873679,-82.9822426685685,Haywood,9
1836,44.6718859730998,-93.0654354719625,Dakota,4
1837,43.0640228937318,-118.967865989128,Harney,17
1838,17.9979832029984,-65.8952998074965,Maunabo,49
1839,43.9696260778853,-89.7706366919345,Adams,16
1840,40.4103560408848,-91.7383967381605,Clark,45
1841,38.9698641089472,-84.7278660099302,Boone,34
1842,37.7533795680148,-85.1747455781262,Washington,34
1843,31.0762437188866,-92.0013767406696,Avoyelles,21
1845,43.2927330825476,-84.6049116171742,Gratiot,42
1846,41.027730404218,-94.2423791651691,Union,54
1847,37.2190271315445,-88.7077444876762,Massac,3
1848,41.5664862405272,-100.482861445749,Logan,18
1849,41.1690382530099,-98.0379852163059,Merrick,18
1850,-14.2679537615609,-170.628592215069,Eastern,41
1851,40.5158445908909,-85.6547258987362,Grant,48
1852,29.4711497212849,-81.2929946347719,Flagler,2
1853,31.5502030851232,-90.1069949124259,Lawrence,44
1854,31.9442491969555,-92.6367652261995,Winn,21
1855,41.3531332955762,-90.1314173284404,Henry,3
1856,44.6456751868812,-123.907699391274,Lincoln,17
1857,43.429226303805,-70.6701470823084,York,37
1858,44.977852836595,-97.1886184268834,Codington,50
1859,33.0922652663174,-84.3892346441038,Pike,22
1860,32.078462289589,-84.8352025023174,Stewart,22
1861,40.2875516892652,-74.1581465863735,Monmouth,15
1862,36.3683941995921,-90.4173835796561,Clay,43
1863,35.1469785689124,-92.332044129696,Faulkner,43
1864,36.4081987214797,-94.8026508207997,Delaware,29
1865,41.3364649741358,-92.1786426124917,Keokuk,54
1866,39.356199233747,-90.3904943033442,Greene,3
1867,47.5231708977771,-91.4088486219516,Lake,4
1868,33.0335103662117,-85.0283368574498,Troup,22
1869,40.7050098939271,-123.915819458765,Humboldt,14
1870,36.1490481167558,-87.356655072397,Dickson,30
1871,45.2732419176193,-93.2464676381397,Anoka,4
1872,42.9883710934529,-97.884632281312,Bon Homme,50
1873,36.1753638180246,-82.8458173795584,Greene,30
1895,40.4809952699384,-78.3486041561334,Blair,19
1896,37.940785712368,-93.320721031473,Hickory,45
1897,36.7098654366057,-93.8290666692596,Barry,45
1898,45.0170644490621,-93.0996066082443,Ramsey,4
1899,33.7005398899147,-94.2343408854228,Little River,43
1900,39.0203977365754,-119.189196866999,Lyon,39
1901,26.5756896131175,-81.9154527174245,Lee,2
1902,42.3654604605543,-123.555579623604,Josephine,17
1903,18.4495762273436,-66.4877274968798,Manatí,49
1904,31.1749078985919,-90.4041605663561,Pike,44
1905,35.4906159965308,-86.0747626433877,Coffee,30
1906,44.9433138413358,-113.933237610189,Lemhi,7
1907,37.4781918160722,-86.8488900601884,Ohio,34
1908,41.1129270066231,-96.1119916013056,Sarpy,18
1909,31.1883904768638,-83.768848270774,Colquitt,22
1910,46.3570780337856,-96.4683468784446,Wilkin,4
1911,38.052124353375,-89.8253110379565,Randolph,3
1912,44.4091601375023,-69.7672643964425,Kennebec,37
1913,36.8438819350857,-81.5370244846619,Smyth,52
1914,34.0212702388118,-103.480191405524,Roosevelt,13
1915,39.9724398131211,-79.028272260666,Somerset,19
1916,36.7244788357933,-81.9596609091008,Washington,52
1917,36.0794514716863,-79.7890131095181,Guilford,9
1918,43.451118063492,-116.241086070435,Ada,7
1919,35.6388619683249,-99.0014994823539,Custer,29
1920,40.5871910049743,-83.1608712045169,Marion,25
1921,39.6224960172258,-90.8862867107159,Pike,3
1922,40.7882321333525,-89.2111366701918,Woodford,3
1923,33.3596349149206,-82.0735491119877,Richmond,22
1924,33.2808768874513,-88.0886926036237,Pickens,23
1925,36.2183622125286,-99.7545958471929,Ellis,29
1926,38.0837602967067,-89.3670151625927,Perry,3
1927,42.4018650743951,-92.7914177427591,Grundy,54
1928,40.4850679351619,-106.991193188666,Routt,27
1929,40.5635070408314,-74.6163131907414,Somerset,15
1930,39.1775731399038,-122.237028471319,Colusa,14
1931,37.4596312559473,-88.8808892546048,Johnson,3
1932,37.8213415755369,-107.300311757721,Hinsdale,27
1933,42.2838697109878,-113.600367655907,Cassia,7
1934,45.5614867357062,-93.2951807428374,Isanti,4
1935,42.1174762382536,-80.0981063506013,Erie,19
1936,31.8692373896183,-90.4487986734713,Copiah,44
1937,32.5637174208523,-95.8365136783248,Van Zandt,26
1938,37.2692483248896,-80.067868452057,Roanoke,52
1939,38.1645173794581,-79.1338308555154,Augusta,52
1940,35.2873949538766,-83.1408342559805,Jackson,9
1941,40.8681546870068,-110.955667254136,Summit,24
1942,37.6164789701421,-93.4005326857063,Polk,45
1943,39.9338060532479,-117.037908402373,Lander,39
1944,43.2906746427905,-91.8437074071622,Winneshiek,54
1945,38.6888138797893,-84.0901900369735,Bracken,34
1946,45.848453012066,-88.3981581253074,Florence,16
1947,38.7140256930053,-81.3483494756903,Roane,1
1948,46.5857608312893,-94.9694088253339,Wadena,4
1949,37.2913649374121,-77.2985419808563,Hopewell,52
1950,42.3362645272019,-89.1608527169194,Winnebago,3
1951,33.7997522562985,-110.811736600421,Gila,55
1952,38.3694100721127,-75.6315310759431,Wicomico,5
1953,38.3181730857797,-83.0495366023847,Carter,34
1954,35.8070829214117,-80.873435133407,Iredell,9
1955,36.76695412958,-78.9366235266192,Halifax,52
1956,36.3586269742469,-76.9806622529572,Hertford,9
1957,42.9022816395386,-74.4396826827368,Montgomery,38
1958,48.0662320513346,-96.0366682912227,Pennington,4
1959,48.8297361680339,-121.87287012467,Whatcom,20
1960,45.378057711942,-120.210870341425,Gilliam,17
1961,39.8660002750577,-74.2500256041966,Ocean,15
1962,36.3085992840686,-93.0915632146748,Boone,43
1963,34.6621012923632,-98.4716610541165,Comanche,29
1964,32.7399038878275,-99.8787443375066,Jones,26
1965,30.5434712363857,-95.985503234423,Grimes,26
1966,43.0217229123796,-83.7067110464229,Genesee,42
1967,29.9007722766163,-91.0625868591266,Assumption,21
1968,33.9364499987469,-89.3364451558992,Calhoun,44
1983,31.2142247637401,-88.6391629376299,Greene,44
1984,46.252703618491,-105.571782505555,Custer,46
1985,45.6296454583032,-96.9461162092454,Roberts,50
1986,42.0426447489257,-89.3206539002185,Ogle,3
1987,46.2646559484282,-96.9482792142858,Richland,33
1988,45.4237232625442,-91.8483119973752,Barron,16
1989,46.317055522786,-90.2644527686474,Iron,16
1990,44.2842825533875,-92.2302681250442,Wabasha,4
1991,41.7449573739965,-123.957813810455,Del Norte,14
1992,34.4162020382138,-95.3757941409842,Pushmataha,29
1993,47.8691055112155,-120.618905248738,Chelan,20
2046,45.7721838062244,-96.4716426494935,Traverse,4
2083,30.4964266854941,-82.9479591408051,Hamilton,2
2084,29.2822056195836,-82.7886131339471,Levy,2
2085,18.2664114596376,-65.9792686348925,Gurabo,49
2086,18.441029345941,-66.7977150622891,Hatillo,49
1969,58.7310944226753,-156.987170536033,Bristol Bay,40
1970,38.3364505754065,-112.126951438195,Piute,24
1971,38.5951729311575,-83.8242451237945,Mason,34
1972,45.6991326049949,-93.9988377190893,Benton,4
1973,34.9654176383099,-100.813991669706,Donley,26
1974,30.2376465501731,-85.6326228020542,Bay,2
1975,34.9013723849728,-87.6539980071379,Lauderdale,23
1976,40.1208707646234,-87.2419916979272,Fountain,48
1977,39.3911561831281,-88.8055360078109,Shelby,3
1978,39.0001908556891,-89.0241435416497,Fayette,3
1979,39.7371485878755,-82.236138264057,Perry,25
